{
  "license": "CC-BY-SA-4.0",
  "description": {
    "en": "Selected Middle Stone Age sites from the ROAD Database"
  },
  "sources": "Data retrieved from the [https://www.roceeh.uni-tuebingen.de/roadweb ROCEEH Out Of Africa Database (ROAD)] on 2025-04-08.",
  "data": {
    "type": "FeatureCollection",
    "features": [
      {
        "type": "Feature",
        "properties": {
          "title": "Aar 1",
          "description": "[https://www.roceeh.uni-tuebingen.de/roadweb/tcpdf/localityInfoPDF/localityInfoPDF.php?locality=Aar%201 Summary Data Sheet]"
        },
        "geometry": {
          "type": "Point",
          "coordinates": [16.489, -26.773]
        }
      },
      {
        "type": "Feature",
        "properties": {
          "title": "Aar 2",
          "description": "[https://www.roceeh.uni-tuebingen.de/roadweb/tcpdf/localityInfoPDF/localityInfoPDF.php?locality=Aar%202 Summary Data Sheet]"
        },
        "geometry": {
          "type": "Point",
          "coordinates": [16.468, -26.728]
        }
      },
      {
        "type": "Feature",
        "properties": {
          "title": "Aasvoelkop",
          "description": "[https://www.roceeh.uni-tuebingen.de/roadweb/tcpdf/localityInfoPDF/localityInfoPDF.php?locality=Aasvoelkop Summary Data Sheet]"
        },
        "geometry": {
          "type": "Point",
          "coordinates": [28, -26.17]
        }
      },
      {
        "type": "Feature",
        "properties": {
          "title": "Abdur Archaeological Site",
          "description": "[https://www.roceeh.uni-tuebingen.de/roadweb/tcpdf/localityInfoPDF/localityInfoPDF.php?locality=Abdur%20Archaeological%20Site Summary Data Sheet]"
        },
        "geometry": {
          "type": "Point",
          "coordinates": [39.864, 15.151]
        }
      },
      {
        "type": "Feature",
        "properties": {
          "title": "Airport site",
          "description": "[https://www.roceeh.uni-tuebingen.de/roadweb/tcpdf/localityInfoPDF/localityInfoPDF.php?locality=Airport%20site Summary Data Sheet]"
        },
        "geometry": {
          "type": "Point",
          "coordinates": [33.894, -9.954]
        }
      },
      {
        "type": "Feature",
        "properties": {
          "title": "Aladi Springs",
          "description": "[https://www.roceeh.uni-tuebingen.de/roadweb/tcpdf/localityInfoPDF/localityInfoPDF.php?locality=Aladi%20Springs Summary Data Sheet]"
        },
        "geometry": {
          "type": "Point",
          "coordinates": [40.917, 9.383]
        }
      },
      {
        "type": "Feature",
        "properties": {
          "title": "Alexandersfontein",
          "description": "[https://www.roceeh.uni-tuebingen.de/roadweb/tcpdf/localityInfoPDF/localityInfoPDF.php?locality=Alexandersfontein Summary Data Sheet]"
        },
        "geometry": {
          "type": "Point",
          "coordinates": [24.771, -28.837]
        }
      },
      {
        "type": "Feature",
        "properties": {
          "title": "Anyskop_Blowout",
          "description": "[https://www.roceeh.uni-tuebingen.de/roadweb/tcpdf/localityInfoPDF/localityInfoPDF.php?locality=Anyskop_Blowout Summary Data Sheet]"
        },
        "geometry": {
          "type": "Point",
          "coordinates": [18.114, -32.971]
        }
      },
      {
        "type": "Feature",
        "properties": {
          "title": "Apollo 11",
          "description": "[https://www.roceeh.uni-tuebingen.de/roadweb/tcpdf/localityInfoPDF/localityInfoPDF.php?locality=Apollo%2011 Summary Data Sheet]"
        },
        "geometry": {
          "type": "Point",
          "coordinates": [17.117, -27.701]
        }
      },
      {
        "type": "Feature",
        "properties": {
          "title": "Asfet",
          "description": "[https://www.roceeh.uni-tuebingen.de/roadweb/tcpdf/localityInfoPDF/localityInfoPDF.php?locality=Asfet Summary Data Sheet]"
        },
        "geometry": {
          "type": "Point",
          "coordinates": [39.685, 15.12]
        }
      },
      {
        "type": "Feature",
        "properties": {
          "title": "Bambata Cave",
          "description": "[https://www.roceeh.uni-tuebingen.de/roadweb/tcpdf/localityInfoPDF/localityInfoPDF.php?locality=Bambata%20Cave Summary Data Sheet]"
        },
        "geometry": {
          "type": "Point",
          "coordinates": [28.406, -20.503]
        }
      },
      {
        "type": "Feature",
        "properties": {
          "title": "Bargny 1",
          "description": "[https://www.roceeh.uni-tuebingen.de/roadweb/tcpdf/localityInfoPDF/localityInfoPDF.php?locality=Bargny%201 Summary Data Sheet]"
        },
        "geometry": {
          "type": "Point",
          "coordinates": [-17.2, 14.7]
        }
      },
      {
        "type": "Feature",
        "properties": {
          "title": "Birimi",
          "description": "[https://www.roceeh.uni-tuebingen.de/roadweb/tcpdf/localityInfoPDF/localityInfoPDF.php?locality=Birimi Summary Data Sheet]"
        },
        "geometry": {
          "type": "Point",
          "coordinates": [-0.392, 10.561]
        }
      },
      {
        "type": "Feature",
        "properties": {
          "title": "Blaaubank",
          "description": "[https://www.roceeh.uni-tuebingen.de/roadweb/tcpdf/localityInfoPDF/localityInfoPDF.php?locality=Blaaubank Summary Data Sheet]"
        },
        "geometry": {
          "type": "Point",
          "coordinates": [27.75, -24.75]
        }
      },
      {
        "type": "Feature",
        "properties": {
          "title": "Blombos Cave",
          "description": "[https://www.roceeh.uni-tuebingen.de/roadweb/tcpdf/localityInfoPDF/localityInfoPDF.php?locality=Blombos%20Cave Summary Data Sheet]"
        },
        "geometry": {
          "type": "Point",
          "coordinates": [21.218, -34.413]
        }
      },
      {
        "type": "Feature",
        "properties": {
          "title": "Boomplaas Cave",
          "description": "[https://www.roceeh.uni-tuebingen.de/roadweb/tcpdf/localityInfoPDF/localityInfoPDF.php?locality=Boomplaas%20Cave Summary Data Sheet]"
        },
        "geometry": {
          "type": "Point",
          "coordinates": [22.183, -33.383]
        }
      },
      {
        "type": "Feature",
        "properties": {
          "title": "Border Cave",
          "description": "[https://www.roceeh.uni-tuebingen.de/roadweb/tcpdf/localityInfoPDF/localityInfoPDF.php?locality=Border%20Cave Summary Data Sheet]"
        },
        "geometry": {
          "type": "Point",
          "coordinates": [31.989, -27.021]
        }
      },
      {
        "type": "Feature",
        "properties": {
          "title": "Boskop",
          "description": "[https://www.roceeh.uni-tuebingen.de/roadweb/tcpdf/localityInfoPDF/localityInfoPDF.php?locality=Boskop Summary Data Sheet]"
        },
        "geometry": {
          "type": "Point",
          "coordinates": [27.111, -26.555]
        }
      },
      {
        "type": "Feature",
        "properties": {
          "title": "Bremen 1C",
          "description": "[https://www.roceeh.uni-tuebingen.de/roadweb/tcpdf/localityInfoPDF/localityInfoPDF.php?locality=Bremen%201C Summary Data Sheet]"
        },
        "geometry": {
          "type": "Point",
          "coordinates": [17.148, -25.767]
        }
      },
      {
        "type": "Feature",
        "properties": {
          "title": "Bremen 2B",
          "description": "[https://www.roceeh.uni-tuebingen.de/roadweb/tcpdf/localityInfoPDF/localityInfoPDF.php?locality=Bremen%202B Summary Data Sheet]"
        },
        "geometry": {
          "type": "Point",
          "coordinates": [17.097, -25.758]
        }
      },
      {
        "type": "Feature",
        "properties": {
          "title": "Bundu Farm",
          "description": "[https://www.roceeh.uni-tuebingen.de/roadweb/tcpdf/localityInfoPDF/localityInfoPDF.php?locality=Bundu%20Farm Summary Data Sheet]"
        },
        "geometry": {
          "type": "Point",
          "coordinates": [22.207, -29.751]
        }
      },
      {
        "type": "Feature",
        "properties": {
          "title": "Bushman Rock Shelter",
          "description": "[https://www.roceeh.uni-tuebingen.de/roadweb/tcpdf/localityInfoPDF/localityInfoPDF.php?locality=Bushman%20Rock%20Shelter Summary Data Sheet]"
        },
        "geometry": {
          "type": "Point",
          "coordinates": [30.625, -24.577]
        }
      },
      {
        "type": "Feature",
        "properties": {
          "title": "Cafema",
          "description": "[https://www.roceeh.uni-tuebingen.de/roadweb/tcpdf/localityInfoPDF/localityInfoPDF.php?locality=Cafema Summary Data Sheet]"
        },
        "geometry": {
          "type": "Point",
          "coordinates": [12.201, -17.213]
        }
      },
      {
        "type": "Feature",
        "properties": {
          "title": "Canteen Kopje",
          "description": "[https://www.roceeh.uni-tuebingen.de/roadweb/tcpdf/localityInfoPDF/localityInfoPDF.php?locality=Canteen%20Kopje Summary Data Sheet]"
        },
        "geometry": {
          "type": "Point",
          "coordinates": [24.532, -28.542]
        }
      },
      {
        "type": "Feature",
        "properties": {
          "title": "Cape Hangklip",
          "description": "[https://www.roceeh.uni-tuebingen.de/roadweb/tcpdf/localityInfoPDF/localityInfoPDF.php?locality=Cape%20Hangklip Summary Data Sheet]"
        },
        "geometry": {
          "type": "Point",
          "coordinates": [18.83, -34.374]
        }
      },
      {
        "type": "Feature",
        "properties": {
          "title": "Cape St. Blaize Cave",
          "description": "[https://www.roceeh.uni-tuebingen.de/roadweb/tcpdf/localityInfoPDF/localityInfoPDF.php?locality=Cape%20St.%20Blaize%20Cave Summary Data Sheet]"
        },
        "geometry": {
          "type": "Point",
          "coordinates": [22.157, -34.186]
        }
      },
      {
        "type": "Feature",
        "properties": {
          "title": "Cartwrights Site (GsJj 75)",
          "description": "[https://www.roceeh.uni-tuebingen.de/roadweb/tcpdf/localityInfoPDF/localityInfoPDF.php?locality=Cartwrights%20Site%20(GsJj%2075) Summary Data Sheet]"
        },
        "geometry": {
          "type": "Point",
          "coordinates": [36.458, -0.597]
        }
      },
      {
        "type": "Feature",
        "properties": {
          "title": "Cave of Hearths",
          "description": "[https://www.roceeh.uni-tuebingen.de/roadweb/tcpdf/localityInfoPDF/localityInfoPDF.php?locality=Cave%20of%20Hearths Summary Data Sheet]"
        },
        "geometry": {
          "type": "Point",
          "coordinates": [29.199, -24.141]
        }
      },
      {
        "type": "Feature",
        "properties": {
          "title": "Dale Rose Parlour",
          "description": "[https://www.roceeh.uni-tuebingen.de/roadweb/tcpdf/localityInfoPDF/localityInfoPDF.php?locality=Dale%20Rose%20Parlour Summary Data Sheet]"
        },
        "geometry": {
          "type": "Point",
          "coordinates": [18.442, -34.129]
        }
      },
      {
        "type": "Feature",
        "properties": {
          "title": "Die Kelders",
          "description": "[https://www.roceeh.uni-tuebingen.de/roadweb/tcpdf/localityInfoPDF/localityInfoPDF.php?locality=Die%20Kelders Summary Data Sheet]"
        },
        "geometry": {
          "type": "Point",
          "coordinates": [19.376, -34.546]
        }
      },
      {
        "type": "Feature",
        "properties": {
          "title": "Diepkloof Rock Shelter",
          "description": "[https://www.roceeh.uni-tuebingen.de/roadweb/tcpdf/localityInfoPDF/localityInfoPDF.php?locality=Diepkloof%20Rock%20Shelter Summary Data Sheet]"
        },
        "geometry": {
          "type": "Point",
          "coordinates": [18.453, -32.387]
        }
      },
      {
        "type": "Feature",
        "properties": {
          "title": "El Harhoura 2",
          "description": "[https://www.roceeh.uni-tuebingen.de/roadweb/tcpdf/localityInfoPDF/localityInfoPDF.php?locality=El%20Harhoura%202 Summary Data Sheet]"
        },
        "geometry": {
          "type": "Point",
          "coordinates": [-6.926, 33.953]
        }
      },
      {
        "type": "Feature",
        "properties": {
          "title": "Elands Bay Cave",
          "description": "[https://www.roceeh.uni-tuebingen.de/roadweb/tcpdf/localityInfoPDF/localityInfoPDF.php?locality=Elands%20Bay%20Cave Summary Data Sheet]"
        },
        "geometry": {
          "type": "Point",
          "coordinates": [18.318, -32.318]
        }
      },
      {
        "type": "Feature",
        "properties": {
          "title": "Enkapune Ya Muto",
          "description": "[https://www.roceeh.uni-tuebingen.de/roadweb/tcpdf/localityInfoPDF/localityInfoPDF.php?locality=Enkapune%20Ya%20Muto Summary Data Sheet]"
        },
        "geometry": {
          "type": "Point",
          "coordinates": [36.15, -0.833]
        }
      },
      {
        "type": "Feature",
        "properties": {
          "title": "Equus Cave",
          "description": "[https://www.roceeh.uni-tuebingen.de/roadweb/tcpdf/localityInfoPDF/localityInfoPDF.php?locality=Equus%20Cave Summary Data Sheet]"
        },
        "geometry": {
          "type": "Point",
          "coordinates": [24.63, -27.614]
        }
      },
      {
        "type": "Feature",
        "properties": {
          "title": "Erb Tanks Rockshelter",
          "description": "[https://www.roceeh.uni-tuebingen.de/roadweb/tcpdf/localityInfoPDF/localityInfoPDF.php?locality=Erb%20Tanks%20Rockshelter Summary Data Sheet]"
        },
        "geometry": {
          "type": "Point",
          "coordinates": [14.97, -22.42]
        }
      },
      {
        "type": "Feature",
        "properties": {
          "title": "Etemba 14",
          "description": "[https://www.roceeh.uni-tuebingen.de/roadweb/tcpdf/localityInfoPDF/localityInfoPDF.php?locality=Etemba%2014 Summary Data Sheet]"
        },
        "geometry": {
          "type": "Point",
          "coordinates": [15.617, -21.45]
        }
      },
      {
        "type": "Feature",
        "properties": {
          "title": "Eyasi",
          "description": "[https://www.roceeh.uni-tuebingen.de/roadweb/tcpdf/localityInfoPDF/localityInfoPDF.php?locality=Eyasi Summary Data Sheet]"
        },
        "geometry": {
          "type": "Point",
          "coordinates": [35.267, -3.533]
        }
      },
      {
        "type": "Feature",
        "properties": {
          "title": "Fincha Habera",
          "description": "[https://www.roceeh.uni-tuebingen.de/roadweb/tcpdf/localityInfoPDF/localityInfoPDF.php?locality=Fincha%20Habera Summary Data Sheet]"
        },
        "geometry": {
          "type": "Point",
          "coordinates": [39.72, 7.015]
        }
      },
      {
        "type": "Feature",
        "properties": {
          "title": "Florisbad",
          "description": "[https://www.roceeh.uni-tuebingen.de/roadweb/tcpdf/localityInfoPDF/localityInfoPDF.php?locality=Florisbad Summary Data Sheet]"
        },
        "geometry": {
          "type": "Point",
          "coordinates": [26.07, -28.768]
        }
      },
      {
        "type": "Feature",
        "properties": {
          "title": "Ga-Mohana Hill North",
          "description": "[https://www.roceeh.uni-tuebingen.de/roadweb/tcpdf/localityInfoPDF/localityInfoPDF.php?locality=Ga-Mohana%20Hill%20North Summary Data Sheet]"
        },
        "geometry": {
          "type": "Point",
          "coordinates": [23.344, -27.384]
        }
      },
      {
        "type": "Feature",
        "properties": {
          "title": "Gademotta Area",
          "description": "[https://www.roceeh.uni-tuebingen.de/roadweb/tcpdf/localityInfoPDF/localityInfoPDF.php?locality=Gademotta%20Area Summary Data Sheet]"
        },
        "geometry": {
          "type": "Point",
          "coordinates": [38.646, 7.946]
        }
      },
      {
        "type": "Feature",
        "properties": {
          "title": "Geelbek_Alice",
          "description": "[https://www.roceeh.uni-tuebingen.de/roadweb/tcpdf/localityInfoPDF/localityInfoPDF.php?locality=Geelbek_Alice Summary Data Sheet]"
        },
        "geometry": {
          "type": "Point",
          "coordinates": [18.153, -33.19]
        }
      },
      {
        "type": "Feature",
        "properties": {
          "title": "Geelbek_Bay35",
          "description": "[https://www.roceeh.uni-tuebingen.de/roadweb/tcpdf/localityInfoPDF/localityInfoPDF.php?locality=Geelbek_Bay35 Summary Data Sheet]"
        },
        "geometry": {
          "type": "Point",
          "coordinates": [18.153, -33.191]
        }
      },
      {
        "type": "Feature",
        "properties": {
          "title": "Geelbek_Equus",
          "description": "[https://www.roceeh.uni-tuebingen.de/roadweb/tcpdf/localityInfoPDF/localityInfoPDF.php?locality=Geelbek_Equus Summary Data Sheet]"
        },
        "geometry": {
          "type": "Point",
          "coordinates": [18.162, -33.178]
        }
      },
      {
        "type": "Feature",
        "properties": {
          "title": "Geelbek_Homo",
          "description": "[https://www.roceeh.uni-tuebingen.de/roadweb/tcpdf/localityInfoPDF/localityInfoPDF.php?locality=Geelbek_Homo Summary Data Sheet]"
        },
        "geometry": {
          "type": "Point",
          "coordinates": [18.153, -33.191]
        }
      },
      {
        "type": "Feature",
        "properties": {
          "title": "Geelbek_Loop",
          "description": "[https://www.roceeh.uni-tuebingen.de/roadweb/tcpdf/localityInfoPDF/localityInfoPDF.php?locality=Geelbek_Loop Summary Data Sheet]"
        },
        "geometry": {
          "type": "Point",
          "coordinates": [18.164, -33.179]
        }
      },
      {
        "type": "Feature",
        "properties": {
          "title": "Geelbek_Mrose",
          "description": "[https://www.roceeh.uni-tuebingen.de/roadweb/tcpdf/localityInfoPDF/localityInfoPDF.php?locality=Geelbek_Mrose Summary Data Sheet]"
        },
        "geometry": {
          "type": "Point",
          "coordinates": [18.163, -33.181]
        }
      },
      {
        "type": "Feature",
        "properties": {
          "title": "Geelbek_Rhino",
          "description": "[https://www.roceeh.uni-tuebingen.de/roadweb/tcpdf/localityInfoPDF/localityInfoPDF.php?locality=Geelbek_Rhino Summary Data Sheet]"
        },
        "geometry": {
          "type": "Point",
          "coordinates": [18.152, -33.18]
        }
      },
      {
        "type": "Feature",
        "properties": {
          "title": "Geelbek_Snoek",
          "description": "[https://www.roceeh.uni-tuebingen.de/roadweb/tcpdf/localityInfoPDF/localityInfoPDF.php?locality=Geelbek_Snoek Summary Data Sheet]"
        },
        "geometry": {
          "type": "Point",
          "coordinates": [18.158, -33.18]
        }
      },
      {
        "type": "Feature",
        "properties": {
          "title": "Geelbek_Stella",
          "description": "[https://www.roceeh.uni-tuebingen.de/roadweb/tcpdf/localityInfoPDF/localityInfoPDF.php?locality=Geelbek_Stella Summary Data Sheet]"
        },
        "geometry": {
          "type": "Point",
          "coordinates": [18.156, -33.185]
        }
      },
      {
        "type": "Feature",
        "properties": {
          "title": "Geelbek_Toaster",
          "description": "[https://www.roceeh.uni-tuebingen.de/roadweb/tcpdf/localityInfoPDF/localityInfoPDF.php?locality=Geelbek_Toaster Summary Data Sheet]"
        },
        "geometry": {
          "type": "Point",
          "coordinates": [18.154, -33.183]
        }
      },
      {
        "type": "Feature",
        "properties": {
          "title": "Gi",
          "description": "[https://www.roceeh.uni-tuebingen.de/roadweb/tcpdf/localityInfoPDF/localityInfoPDF.php?locality=Gi Summary Data Sheet]"
        },
        "geometry": {
          "type": "Point",
          "coordinates": [21.008, -19.624]
        }
      },
      {
        "type": "Feature",
        "properties": {
          "title": "Goda Buticha",
          "description": "[https://www.roceeh.uni-tuebingen.de/roadweb/tcpdf/localityInfoPDF/localityInfoPDF.php?locality=Goda%20Buticha Summary Data Sheet]"
        },
        "geometry": {
          "type": "Point",
          "coordinates": [41.64, 9.52]
        }
      },
      {
        "type": "Feature",
        "properties": {
          "title": "Gorgora Rock Shelter",
          "description": "[https://www.roceeh.uni-tuebingen.de/roadweb/tcpdf/localityInfoPDF/localityInfoPDF.php?locality=Gorgora%20Rock%20Shelter Summary Data Sheet]"
        },
        "geometry": {
          "type": "Point",
          "coordinates": [37.28, 12.24]
        }
      },
      {
        "type": "Feature",
        "properties": {
          "title": "Grassridge Rockshelter",
          "description": "[https://www.roceeh.uni-tuebingen.de/roadweb/tcpdf/localityInfoPDF/localityInfoPDF.php?locality=Grassridge%20Rockshelter Summary Data Sheet]"
        },
        "geometry": {
          "type": "Point",
          "coordinates": [26.852, -31.57]
        }
      },
      {
        "type": "Feature",
        "properties": {
          "title": "Ha Soloja",
          "description": "[https://www.roceeh.uni-tuebingen.de/roadweb/tcpdf/localityInfoPDF/localityInfoPDF.php?locality=Ha%20Soloja Summary Data Sheet]"
        },
        "geometry": {
          "type": "Point",
          "coordinates": [29.033, -29.833]
        }
      },
      {
        "type": "Feature",
        "properties": {
          "title": "Haalenberg 1",
          "description": "[https://www.roceeh.uni-tuebingen.de/roadweb/tcpdf/localityInfoPDF/localityInfoPDF.php?locality=Haalenberg%201 Summary Data Sheet]"
        },
        "geometry": {
          "type": "Point",
          "coordinates": [15.468, -26.586]
        }
      },
      {
        "type": "Feature",
        "properties": {
          "title": "Hadar",
          "description": "[https://www.roceeh.uni-tuebingen.de/roadweb/tcpdf/localityInfoPDF/localityInfoPDF.php?locality=Hadar Summary Data Sheet]"
        },
        "geometry": {
          "type": "Point",
          "coordinates": [40.583, 11.1]
        }
      },
      {
        "type": "Feature",
        "properties": {
          "title": "Halibee",
          "description": "[https://www.roceeh.uni-tuebingen.de/roadweb/tcpdf/localityInfoPDF/localityInfoPDF.php?locality=Halibee Summary Data Sheet]"
        },
        "geometry": {
          "type": "Point",
          "coordinates": [40.39, 10.78]
        }
      },
      {
        "type": "Feature",
        "properties": {
          "title": "Herolds Bay Cave",
          "description": "[https://www.roceeh.uni-tuebingen.de/roadweb/tcpdf/localityInfoPDF/localityInfoPDF.php?locality=Herolds%20Bay%20Cave Summary Data Sheet]"
        },
        "geometry": {
          "type": "Point",
          "coordinates": [22.389, -34.054]
        }
      },
      {
        "type": "Feature",
        "properties": {
          "title": "Highlands",
          "description": "[https://www.roceeh.uni-tuebingen.de/roadweb/tcpdf/localityInfoPDF/localityInfoPDF.php?locality=Highlands Summary Data Sheet]"
        },
        "geometry": {
          "type": "Point",
          "coordinates": [25.57, -31.83]
        }
      },
      {
        "type": "Feature",
        "properties": {
          "title": "Hoedjiespunt 1",
          "description": "[https://www.roceeh.uni-tuebingen.de/roadweb/tcpdf/localityInfoPDF/localityInfoPDF.php?locality=Hoedjiespunt%201 Summary Data Sheet]"
        },
        "geometry": {
          "type": "Point",
          "coordinates": [17.96, -33.029]
        }
      },
      {
        "type": "Feature",
        "properties": {
          "title": "Holley Rock Shelter",
          "description": "[https://www.roceeh.uni-tuebingen.de/roadweb/tcpdf/localityInfoPDF/localityInfoPDF.php?locality=Holley%20Rock%20Shelter Summary Data Sheet]"
        },
        "geometry": {
          "type": "Point",
          "coordinates": [30.539, -29.464]
        }
      },
      {
        "type": "Feature",
        "properties": {
          "title": "Hollow Rock Shelter",
          "description": "[https://www.roceeh.uni-tuebingen.de/roadweb/tcpdf/localityInfoPDF/localityInfoPDF.php?locality=Hollow%20Rock%20Shelter Summary Data Sheet]"
        },
        "geometry": {
          "type": "Point",
          "coordinates": [19.079, -32.084]
        }
      },
      {
        "type": "Feature",
        "properties": {
          "title": "Howiesons Poort",
          "description": "[https://www.roceeh.uni-tuebingen.de/roadweb/tcpdf/localityInfoPDF/localityInfoPDF.php?locality=Howiesons%20Poort Summary Data Sheet]"
        },
        "geometry": {
          "type": "Point",
          "coordinates": [26.483, -33.383]
        }
      },
      {
        "type": "Feature",
        "properties": {
          "title": "Iramba",
          "description": "[https://www.roceeh.uni-tuebingen.de/roadweb/tcpdf/localityInfoPDF/localityInfoPDF.php?locality=Iramba Summary Data Sheet]"
        },
        "geometry": {
          "type": "Point",
          "coordinates": [34.401, -4.248]
        }
      },
      {
        "type": "Feature",
        "properties": {
          "title": "Issanzu",
          "description": "[https://www.roceeh.uni-tuebingen.de/roadweb/tcpdf/localityInfoPDF/localityInfoPDF.php?locality=Issanzu Summary Data Sheet]"
        },
        "geometry": {
          "type": "Point",
          "coordinates": [34.669, -4.103]
        }
      },
      {
        "type": "Feature",
        "properties": {
          "title": "Jebel Faya FAY-NE1",
          "description": "[https://www.roceeh.uni-tuebingen.de/roadweb/tcpdf/localityInfoPDF/localityInfoPDF.php?locality=Jebel%20Faya%20FAY-NE1 Summary Data Sheet]"
        },
        "geometry": {
          "type": "Point",
          "coordinates": [55.847, 25.119]
        }
      },
      {
        "type": "Feature",
        "properties": {
          "title": "Kabwe",
          "description": "[https://www.roceeh.uni-tuebingen.de/roadweb/tcpdf/localityInfoPDF/localityInfoPDF.php?locality=Kabwe Summary Data Sheet]"
        },
        "geometry": {
          "type": "Point",
          "coordinates": [28.433, -14.45]
        }
      },
      {
        "type": "Feature",
        "properties": {
          "title": "Kalambo Falls Site A",
          "description": "[https://www.roceeh.uni-tuebingen.de/roadweb/tcpdf/localityInfoPDF/localityInfoPDF.php?locality=Kalambo%20Falls%20Site%20A Summary Data Sheet]"
        },
        "geometry": {
          "type": "Point",
          "coordinates": [31.243, -8.596]
        }
      },
      {
        "type": "Feature",
        "properties": {
          "title": "Kalambo Falls Site C North",
          "description": "[https://www.roceeh.uni-tuebingen.de/roadweb/tcpdf/localityInfoPDF/localityInfoPDF.php?locality=Kalambo%20Falls%20Site%20C%20North Summary Data Sheet]"
        },
        "geometry": {
          "type": "Point",
          "coordinates": [31.243, -8.592]
        }
      },
      {
        "type": "Feature",
        "properties": {
          "title": "Kalkbank",
          "description": "[https://www.roceeh.uni-tuebingen.de/roadweb/tcpdf/localityInfoPDF/localityInfoPDF.php?locality=Kalkbank Summary Data Sheet]"
        },
        "geometry": {
          "type": "Point",
          "coordinates": [29.211, -23.493]
        }
      },
      {
        "type": "Feature",
        "properties": {
          "title": "Kamoa",
          "description": "[https://www.roceeh.uni-tuebingen.de/roadweb/tcpdf/localityInfoPDF/localityInfoPDF.php?locality=Kamoa Summary Data Sheet]"
        },
        "geometry": {
          "type": "Point",
          "coordinates": [25.155, -4.301]
        }
      },
      {
        "type": "Feature",
        "properties": {
          "title": "Kangkara Cave",
          "description": "[https://www.roceeh.uni-tuebingen.de/roadweb/tcpdf/localityInfoPDF/localityInfoPDF.php?locality=Kangkara%20Cave Summary Data Sheet]"
        },
        "geometry": {
          "type": "Point",
          "coordinates": [23.083, -33.783]
        }
      },
      {
        "type": "Feature",
        "properties": {
          "title": "Kapthurin GnJh-74",
          "description": "[https://www.roceeh.uni-tuebingen.de/roadweb/tcpdf/localityInfoPDF/localityInfoPDF.php?locality=Kapthurin%20GnJh-74 Summary Data Sheet]"
        },
        "geometry": {
          "type": "Point",
          "coordinates": [35.974, 0.528]
        }
      },
      {
        "type": "Feature",
        "properties": {
          "title": "Katanda 16",
          "description": "[https://www.roceeh.uni-tuebingen.de/roadweb/tcpdf/localityInfoPDF/localityInfoPDF.php?locality=Katanda%2016 Summary Data Sheet]"
        },
        "geometry": {
          "type": "Point",
          "coordinates": [29.6, -0.1]
        }
      },
      {
        "type": "Feature",
        "properties": {
          "title": "Katanda 2",
          "description": "[https://www.roceeh.uni-tuebingen.de/roadweb/tcpdf/localityInfoPDF/localityInfoPDF.php?locality=Katanda%202 Summary Data Sheet]"
        },
        "geometry": {
          "type": "Point",
          "coordinates": [29.6, -0.1]
        }
      },
      {
        "type": "Feature",
        "properties": {
          "title": "Katanda 9",
          "description": "[https://www.roceeh.uni-tuebingen.de/roadweb/tcpdf/localityInfoPDF/localityInfoPDF.php?locality=Katanda%209 Summary Data Sheet]"
        },
        "geometry": {
          "type": "Point",
          "coordinates": [29.6, -0.1]
        }
      },
      {
        "type": "Feature",
        "properties": {
          "title": "Kathu Pan 1",
          "description": "[https://www.roceeh.uni-tuebingen.de/roadweb/tcpdf/localityInfoPDF/localityInfoPDF.php?locality=Kathu%20Pan%201 Summary Data Sheet]"
        },
        "geometry": {
          "type": "Point",
          "coordinates": [23.008, -27.667]
        }
      },
      {
        "type": "Feature",
        "properties": {
          "title": "Kathu Pan 6",
          "description": "[https://www.roceeh.uni-tuebingen.de/roadweb/tcpdf/localityInfoPDF/localityInfoPDF.php?locality=Kathu%20Pan%206 Summary Data Sheet]"
        },
        "geometry": {
          "type": "Point",
          "coordinates": [23.011, -27.67]
        }
      },
      {
        "type": "Feature",
        "properties": {
          "title": "Kathu Pan 9",
          "description": "[https://www.roceeh.uni-tuebingen.de/roadweb/tcpdf/localityInfoPDF/localityInfoPDF.php?locality=Kathu%20Pan%209 Summary Data Sheet]"
        },
        "geometry": {
          "type": "Point",
          "coordinates": [23.012, -27.669]
        }
      },
      {
        "type": "Feature",
        "properties": {
          "title": "Klasies River Mouth Cave 1",
          "description": "[https://www.roceeh.uni-tuebingen.de/roadweb/tcpdf/localityInfoPDF/localityInfoPDF.php?locality=Klasies%20River%20Mouth%20Cave%201 Summary Data Sheet]"
        },
        "geometry": {
          "type": "Point",
          "coordinates": [24.392, -34.108]
        }
      },
      {
        "type": "Feature",
        "properties": {
          "title": "Klasies River Mouth Cave 2",
          "description": "[https://www.roceeh.uni-tuebingen.de/roadweb/tcpdf/localityInfoPDF/localityInfoPDF.php?locality=Klasies%20River%20Mouth%20Cave%202 Summary Data Sheet]"
        },
        "geometry": {
          "type": "Point",
          "coordinates": [24.392, -34.108]
        }
      },
      {
        "type": "Feature",
        "properties": {
          "title": "Klasies River Mouth Shelter 1A",
          "description": "[https://www.roceeh.uni-tuebingen.de/roadweb/tcpdf/localityInfoPDF/localityInfoPDF.php?locality=Klasies%20River%20Mouth%20Shelter%201A Summary Data Sheet]"
        },
        "geometry": {
          "type": "Point",
          "coordinates": [24.392, -34.108]
        }
      },
      {
        "type": "Feature",
        "properties": {
          "title": "Klasies River Mouth Shelter 1B",
          "description": "[https://www.roceeh.uni-tuebingen.de/roadweb/tcpdf/localityInfoPDF/localityInfoPDF.php?locality=Klasies%20River%20Mouth%20Shelter%201B Summary Data Sheet]"
        },
        "geometry": {
          "type": "Point",
          "coordinates": [24.391, -34.108]
        }
      },
      {
        "type": "Feature",
        "properties": {
          "title": "Klein Kliphuis",
          "description": "[https://www.roceeh.uni-tuebingen.de/roadweb/tcpdf/localityInfoPDF/localityInfoPDF.php?locality=Klein%20Kliphuis Summary Data Sheet]"
        },
        "geometry": {
          "type": "Point",
          "coordinates": [18.926, -32.12]
        }
      },
      {
        "type": "Feature",
        "properties": {
          "title": "Klipdrift Shelter",
          "description": "[https://www.roceeh.uni-tuebingen.de/roadweb/tcpdf/localityInfoPDF/localityInfoPDF.php?locality=Klipdrift%20Shelter Summary Data Sheet]"
        },
        "geometry": {
          "type": "Point",
          "coordinates": [20.724, -34.452]
        }
      },
      {
        "type": "Feature",
        "properties": {
          "title": "Klipfonteinrand",
          "description": "[https://www.roceeh.uni-tuebingen.de/roadweb/tcpdf/localityInfoPDF/localityInfoPDF.php?locality=Klipfonteinrand Summary Data Sheet]"
        },
        "geometry": {
          "type": "Point",
          "coordinates": [19.13, -32.072]
        }
      },
      {
        "type": "Feature",
        "properties": {
          "title": "Koedoesrand",
          "description": "[https://www.roceeh.uni-tuebingen.de/roadweb/tcpdf/localityInfoPDF/localityInfoPDF.php?locality=Koedoesrand Summary Data Sheet]"
        },
        "geometry": {
          "type": "Point",
          "coordinates": [24.833, -28.283]
        }
      },
      {
        "type": "Feature",
        "properties": {
          "title": "Kone",
          "description": "[https://www.roceeh.uni-tuebingen.de/roadweb/tcpdf/localityInfoPDF/localityInfoPDF.php?locality=Kone Summary Data Sheet]"
        },
        "geometry": {
          "type": "Point",
          "coordinates": [39.692, 8.8]
        }
      },
      {
        "type": "Feature",
        "properties": {
          "title": "Kudu Koppie",
          "description": "[https://www.roceeh.uni-tuebingen.de/roadweb/tcpdf/localityInfoPDF/localityInfoPDF.php?locality=Kudu%20Koppie Summary Data Sheet]"
        },
        "geometry": {
          "type": "Point",
          "coordinates": [29.339, -22.228]
        }
      },
      {
        "type": "Feature",
        "properties": {
          "title": "Kulkuletti Area",
          "description": "[https://www.roceeh.uni-tuebingen.de/roadweb/tcpdf/localityInfoPDF/localityInfoPDF.php?locality=Kulkuletti%20Area Summary Data Sheet]"
        },
        "geometry": {
          "type": "Point",
          "coordinates": [38.66, 7.949]
        }
      },
      {
        "type": "Feature",
        "properties": {
          "title": "Lainyamok",
          "description": "[https://www.roceeh.uni-tuebingen.de/roadweb/tcpdf/localityInfoPDF/localityInfoPDF.php?locality=Lainyamok Summary Data Sheet]"
        },
        "geometry": {
          "type": "Point",
          "coordinates": [36.187, -1.773]
        }
      },
      {
        "type": "Feature",
        "properties": {
          "title": "Lincoln Cave",
          "description": "[https://www.roceeh.uni-tuebingen.de/roadweb/tcpdf/localityInfoPDF/localityInfoPDF.php?locality=Lincoln%20Cave Summary Data Sheet]"
        },
        "geometry": {
          "type": "Point",
          "coordinates": [27.75, -25.96]
        }
      },
      {
        "type": "Feature",
        "properties": {
          "title": "Lion Cavern",
          "description": "[https://www.roceeh.uni-tuebingen.de/roadweb/tcpdf/localityInfoPDF/localityInfoPDF.php?locality=Lion%20Cavern Summary Data Sheet]"
        },
        "geometry": {
          "type": "Point",
          "coordinates": [31.03, -26.193]
        }
      },
      {
        "type": "Feature",
        "properties": {
          "title": "Loiyangalani Site HcJd1",
          "description": "[https://www.roceeh.uni-tuebingen.de/roadweb/tcpdf/localityInfoPDF/localityInfoPDF.php?locality=Loiyangalani%20Site%20HcJd1 Summary Data Sheet]"
        },
        "geometry": {
          "type": "Point",
          "coordinates": [34.832, -2.481]
        }
      },
      {
        "type": "Feature",
        "properties": {
          "title": "Luangwa Valley",
          "description": "[https://www.roceeh.uni-tuebingen.de/roadweb/tcpdf/localityInfoPDF/localityInfoPDF.php?locality=Luangwa%20Valley Summary Data Sheet]"
        },
        "geometry": {
          "type": "Point",
          "coordinates": [31.684, -13.199]
        }
      },
      {
        "type": "Feature",
        "properties": {
          "title": "Magubike",
          "description": "[https://www.roceeh.uni-tuebingen.de/roadweb/tcpdf/localityInfoPDF/localityInfoPDF.php?locality=Magubike Summary Data Sheet]"
        },
        "geometry": {
          "type": "Point",
          "coordinates": [35.473, -7.763]
        }
      },
      {
        "type": "Feature",
        "properties": {
          "title": "Manzi River",
          "description": "[https://www.roceeh.uni-tuebingen.de/roadweb/tcpdf/localityInfoPDF/localityInfoPDF.php?locality=Manzi%20River Summary Data Sheet]"
        },
        "geometry": {
          "type": "Point",
          "coordinates": [31.684, -13.2]
        }
      },
      {
        "type": "Feature",
        "properties": {
          "title": "Melikane",
          "description": "[https://www.roceeh.uni-tuebingen.de/roadweb/tcpdf/localityInfoPDF/localityInfoPDF.php?locality=Melikane Summary Data Sheet]"
        },
        "geometry": {
          "type": "Point",
          "coordinates": [28.75, -29.95]
        }
      },
      {
        "type": "Feature",
        "properties": {
          "title": "Melka Kunture Garba III",
          "description": "[https://www.roceeh.uni-tuebingen.de/roadweb/tcpdf/localityInfoPDF/localityInfoPDF.php?locality=Melka%20Kunture%20Garba%20III Summary Data Sheet]"
        },
        "geometry": {
          "type": "Point",
          "coordinates": [37.633, 8.683]
        }
      },
      {
        "type": "Feature",
        "properties": {
          "title": "Middle Awash Aduma",
          "description": "[https://www.roceeh.uni-tuebingen.de/roadweb/tcpdf/localityInfoPDF/localityInfoPDF.php?locality=Middle%20Awash%20Aduma Summary Data Sheet]"
        },
        "geometry": {
          "type": "Point",
          "coordinates": [40.514, 10.389]
        }
      },
      {
        "type": "Feature",
        "properties": {
          "title": "Mikuyu",
          "description": "[https://www.roceeh.uni-tuebingen.de/roadweb/tcpdf/localityInfoPDF/localityInfoPDF.php?locality=Mikuyu Summary Data Sheet]"
        },
        "geometry": {
          "type": "Point",
          "coordinates": [34.831, -12.729]
        }
      },
      {
        "type": "Feature",
        "properties": {
          "title": "Mochena Borago",
          "description": "[https://www.roceeh.uni-tuebingen.de/roadweb/tcpdf/localityInfoPDF/localityInfoPDF.php?locality=Mochena%20Borago Summary Data Sheet]"
        },
        "geometry": {
          "type": "Point",
          "coordinates": [37.755, 6.897]
        }
      },
      {
        "type": "Feature",
        "properties": {
          "title": "Montagu Cave",
          "description": "[https://www.roceeh.uni-tuebingen.de/roadweb/tcpdf/localityInfoPDF/localityInfoPDF.php?locality=Montagu%20Cave Summary Data Sheet]"
        },
        "geometry": {
          "type": "Point",
          "coordinates": [20.173, -33.833]
        }
      },
      {
        "type": "Feature",
        "properties": {
          "title": "Moshebis Shelter",
          "description": "[https://www.roceeh.uni-tuebingen.de/roadweb/tcpdf/localityInfoPDF/localityInfoPDF.php?locality=Moshebis%20Shelter Summary Data Sheet]"
        },
        "geometry": {
          "type": "Point",
          "coordinates": [29.017, -29.95]
        }
      },
      {
        "type": "Feature",
        "properties": {
          "title": "Muguruk",
          "description": "[https://www.roceeh.uni-tuebingen.de/roadweb/tcpdf/localityInfoPDF/localityInfoPDF.php?locality=Muguruk Summary Data Sheet]"
        },
        "geometry": {
          "type": "Point",
          "coordinates": [34.633, -0.083]
        }
      },
      {
        "type": "Feature",
        "properties": {
          "title": "Mumba",
          "description": "[https://www.roceeh.uni-tuebingen.de/roadweb/tcpdf/localityInfoPDF/localityInfoPDF.php?locality=Mumba Summary Data Sheet]"
        },
        "geometry": {
          "type": "Point",
          "coordinates": [35.28, -3.562]
        }
      },
      {
        "type": "Feature",
        "properties": {
          "title": "Mumbwa",
          "description": "[https://www.roceeh.uni-tuebingen.de/roadweb/tcpdf/localityInfoPDF/localityInfoPDF.php?locality=Mumbwa Summary Data Sheet]"
        },
        "geometry": {
          "type": "Point",
          "coordinates": [27.017, -14.967]
        }
      },
      {
        "type": "Feature",
        "properties": {
          "title": "Mwanganda",
          "description": "[https://www.roceeh.uni-tuebingen.de/roadweb/tcpdf/localityInfoPDF/localityInfoPDF.php?locality=Mwanganda Summary Data Sheet]"
        },
        "geometry": {
          "type": "Point",
          "coordinates": [33.883, -9.933]
        }
      },
      {
        "type": "Feature",
        "properties": {
          "title": "Mwulus Cave",
          "description": "[https://www.roceeh.uni-tuebingen.de/roadweb/tcpdf/localityInfoPDF/localityInfoPDF.php?locality=Mwulus%20Cave Summary Data Sheet]"
        },
        "geometry": {
          "type": "Point",
          "coordinates": [29.211, -24.146]
        }
      },
      {
        "type": "Feature",
        "properties": {
          "title": "Nakechichok 1",
          "description": "[https://www.roceeh.uni-tuebingen.de/roadweb/tcpdf/localityInfoPDF/localityInfoPDF.php?locality=Nakechichok%201 Summary Data Sheet]"
        },
        "geometry": {
          "type": "Point",
          "coordinates": [35.8, 3.15]
        }
      },
      {
        "type": "Feature",
        "properties": {
          "title": "Nasera Rock",
          "description": "[https://www.roceeh.uni-tuebingen.de/roadweb/tcpdf/localityInfoPDF/localityInfoPDF.php?locality=Nasera%20Rock Summary Data Sheet]"
        },
        "geometry": {
          "type": "Point",
          "coordinates": [35.411, -2.646]
        }
      },
      {
        "type": "Feature",
        "properties": {
          "title": "Nata River Site",
          "description": "[https://www.roceeh.uni-tuebingen.de/roadweb/tcpdf/localityInfoPDF/localityInfoPDF.php?locality=Nata%20River%20Site Summary Data Sheet]"
        },
        "geometry": {
          "type": "Point",
          "coordinates": [26.479, -19.897]
        }
      },
      {
        "type": "Feature",
        "properties": {
          "title": "Nelson Bay Cave",
          "description": "[https://www.roceeh.uni-tuebingen.de/roadweb/tcpdf/localityInfoPDF/localityInfoPDF.php?locality=Nelson%20Bay%20Cave Summary Data Sheet]"
        },
        "geometry": {
          "type": "Point",
          "coordinates": [23.376, -34.101]
        }
      },
      {
        "type": "Feature",
        "properties": {
          "title": "Neuhof-Kowas",
          "description": "[https://www.roceeh.uni-tuebingen.de/roadweb/tcpdf/localityInfoPDF/localityInfoPDF.php?locality=Neuhof-Kowas Summary Data Sheet]"
        },
        "geometry": {
          "type": "Point",
          "coordinates": [18, -23]
        }
      },
      {
        "type": "Feature",
        "properties": {
          "title": "Ngalue Cave",
          "description": "[https://www.roceeh.uni-tuebingen.de/roadweb/tcpdf/localityInfoPDF/localityInfoPDF.php?locality=Ngalue%20Cave Summary Data Sheet]"
        },
        "geometry": {
          "type": "Point",
          "coordinates": [35.198, -12.859]
        }
      },
      {
        "type": "Feature",
        "properties": {
          "title": "Nswatugi",
          "description": "[https://www.roceeh.uni-tuebingen.de/roadweb/tcpdf/localityInfoPDF/localityInfoPDF.php?locality=Nswatugi Summary Data Sheet]"
        },
        "geometry": {
          "type": "Point",
          "coordinates": [28.475, -20.536]
        }
      },
      {
        "type": "Feature",
        "properties": {
          "title": "Ntloana Tsoana",
          "description": "[https://www.roceeh.uni-tuebingen.de/roadweb/tcpdf/localityInfoPDF/localityInfoPDF.php?locality=Ntloana%20Tsoana Summary Data Sheet]"
        },
        "geometry": {
          "type": "Point",
          "coordinates": [27.817, -29.317]
        }
      },
      {
        "type": "Feature",
        "properties": {
          "title": "Nyara River Occurrences",
          "description": "[https://www.roceeh.uni-tuebingen.de/roadweb/tcpdf/localityInfoPDF/localityInfoPDF.php?locality=Nyara%20River%20Occurrences Summary Data Sheet]"
        },
        "geometry": {
          "type": "Point",
          "coordinates": [33.395, -8.974]
        }
      },
      {
        "type": "Feature",
        "properties": {
          "title": "Olduvai Gorge Naisiusiu_Ndutu Beds",
          "description": "[https://www.roceeh.uni-tuebingen.de/roadweb/tcpdf/localityInfoPDF/localityInfoPDF.php?locality=Olduvai%20Gorge%20Naisiusiu_Ndutu%20Beds Summary Data Sheet]"
        },
        "geometry": {
          "type": "Point",
          "coordinates": [35.333, -2.983]
        }
      },
      {
        "type": "Feature",
        "properties": {
          "title": "Olieboomspoort",
          "description": "[https://www.roceeh.uni-tuebingen.de/roadweb/tcpdf/localityInfoPDF/localityInfoPDF.php?locality=Olieboomspoort Summary Data Sheet]"
        },
        "geometry": {
          "type": "Point",
          "coordinates": [27.683, -23.848]
        }
      },
      {
        "type": "Feature",
        "properties": {
          "title": "Olorgesailie Basin",
          "description": "[https://www.roceeh.uni-tuebingen.de/roadweb/tcpdf/localityInfoPDF/localityInfoPDF.php?locality=Olorgesailie%20Basin Summary Data Sheet]"
        },
        "geometry": {
          "type": "Point",
          "coordinates": [36.445, -1.578]
        }
      },
      {
        "type": "Feature",
        "properties": {
          "title": "Omo Kibish Awokes Hominid Site (AHS)",
          "description": "[https://www.roceeh.uni-tuebingen.de/roadweb/tcpdf/localityInfoPDF/localityInfoPDF.php?locality=Omo%20Kibish%20Awokes%20Hominid%20Site%20(AHS) Summary Data Sheet]"
        },
        "geometry": {
          "type": "Point",
          "coordinates": [35.919, 5.431]
        }
      },
      {
        "type": "Feature",
        "properties": {
          "title": "Omo Kibish Birds Nest Site (BNS)",
          "description": "[https://www.roceeh.uni-tuebingen.de/roadweb/tcpdf/localityInfoPDF/localityInfoPDF.php?locality=Omo%20Kibish%20Birds%20Nest%20Site%20(BNS) Summary Data Sheet]"
        },
        "geometry": {
          "type": "Point",
          "coordinates": [35.9, 5.41]
        }
      },
      {
        "type": "Feature",
        "properties": {
          "title": "Omo Kibish Kamoyas Hominid Site (KHS)",
          "description": "[https://www.roceeh.uni-tuebingen.de/roadweb/tcpdf/localityInfoPDF/localityInfoPDF.php?locality=Omo%20Kibish%20Kamoyas%20Hominid%20Site%20(KHS) Summary Data Sheet]"
        },
        "geometry": {
          "type": "Point",
          "coordinates": [35.93, 5.403]
        }
      },
      {
        "type": "Feature",
        "properties": {
          "title": "Orangia 1",
          "description": "[https://www.roceeh.uni-tuebingen.de/roadweb/tcpdf/localityInfoPDF/localityInfoPDF.php?locality=Orangia%201 Summary Data Sheet]"
        },
        "geometry": {
          "type": "Point",
          "coordinates": [24.78, -29.97]
        }
      },
      {
        "type": "Feature",
        "properties": {
          "title": "Paardeberg Cave",
          "description": "[https://www.roceeh.uni-tuebingen.de/roadweb/tcpdf/localityInfoPDF/localityInfoPDF.php?locality=Paardeberg%20Cave Summary Data Sheet]"
        },
        "geometry": {
          "type": "Point",
          "coordinates": [24.017, -33.733]
        }
      },
      {
        "type": "Feature",
        "properties": {
          "title": "Peers Cave",
          "description": "[https://www.roceeh.uni-tuebingen.de/roadweb/tcpdf/localityInfoPDF/localityInfoPDF.php?locality=Peers%20Cave Summary Data Sheet]"
        },
        "geometry": {
          "type": "Point",
          "coordinates": [18.407, -34.119]
        }
      },
      {
        "type": "Feature",
        "properties": {
          "title": "Pietkloof Cave",
          "description": "[https://www.roceeh.uni-tuebingen.de/roadweb/tcpdf/localityInfoPDF/localityInfoPDF.php?locality=Pietkloof%20Cave Summary Data Sheet]"
        },
        "geometry": {
          "type": "Point",
          "coordinates": [28.008, -25.806]
        }
      },
      {
        "type": "Feature",
        "properties": {
          "title": "Pinnacle Point 13a",
          "description": "[https://www.roceeh.uni-tuebingen.de/roadweb/tcpdf/localityInfoPDF/localityInfoPDF.php?locality=Pinnacle%20Point%2013a Summary Data Sheet]"
        },
        "geometry": {
          "type": "Point",
          "coordinates": [22.089, -34.208]
        }
      },
      {
        "type": "Feature",
        "properties": {
          "title": "Pinnacle Point 13b",
          "description": "[https://www.roceeh.uni-tuebingen.de/roadweb/tcpdf/localityInfoPDF/localityInfoPDF.php?locality=Pinnacle%20Point%2013b Summary Data Sheet]"
        },
        "geometry": {
          "type": "Point",
          "coordinates": [22.09, -34.208]
        }
      },
      {
        "type": "Feature",
        "properties": {
          "title": "Pinnacle Point 13c",
          "description": "[https://www.roceeh.uni-tuebingen.de/roadweb/tcpdf/localityInfoPDF/localityInfoPDF.php?locality=Pinnacle%20Point%2013c Summary Data Sheet]"
        },
        "geometry": {
          "type": "Point",
          "coordinates": [22.09, -34.208]
        }
      },
      {
        "type": "Feature",
        "properties": {
          "title": "Pinnacle Point 5-6",
          "description": "[https://www.roceeh.uni-tuebingen.de/roadweb/tcpdf/localityInfoPDF/localityInfoPDF.php?locality=Pinnacle%20Point%205-6 Summary Data Sheet]"
        },
        "geometry": {
          "type": "Point",
          "coordinates": [22.089, -34.208]
        }
      },
      {
        "type": "Feature",
        "properties": {
          "title": "Pinnacle Point 9",
          "description": "[https://www.roceeh.uni-tuebingen.de/roadweb/tcpdf/localityInfoPDF/localityInfoPDF.php?locality=Pinnacle%20Point%209 Summary Data Sheet]"
        },
        "geometry": {
          "type": "Point",
          "coordinates": [22.09, -34.207]
        }
      },
      {
        "type": "Feature",
        "properties": {
          "title": "Pniel 6",
          "description": "[https://www.roceeh.uni-tuebingen.de/roadweb/tcpdf/localityInfoPDF/localityInfoPDF.php?locality=Pniel%206 Summary Data Sheet]"
        },
        "geometry": {
          "type": "Point",
          "coordinates": [24.582, -28.608]
        }
      },
      {
        "type": "Feature",
        "properties": {
          "title": "Pockenbank 1",
          "description": "[https://www.roceeh.uni-tuebingen.de/roadweb/tcpdf/localityInfoPDF/localityInfoPDF.php?locality=Pockenbank%201 Summary Data Sheet]"
        },
        "geometry": {
          "type": "Point",
          "coordinates": [16.533, -27.221]
        }
      },
      {
        "type": "Feature",
        "properties": {
          "title": "Pomongwe Cave",
          "description": "[https://www.roceeh.uni-tuebingen.de/roadweb/tcpdf/localityInfoPDF/localityInfoPDF.php?locality=Pomongwe%20Cave Summary Data Sheet]"
        },
        "geometry": {
          "type": "Point",
          "coordinates": [28.514, -20.548]
        }
      },
      {
        "type": "Feature",
        "properties": {
          "title": "Porc Epic Cave",
          "description": "[https://www.roceeh.uni-tuebingen.de/roadweb/tcpdf/localityInfoPDF/localityInfoPDF.php?locality=Porc%20Epic%20Cave Summary Data Sheet]"
        },
        "geometry": {
          "type": "Point",
          "coordinates": [41.833, 9.667]
        }
      },
      {
        "type": "Feature",
        "properties": {
          "title": "Powers Site",
          "description": "[https://www.roceeh.uni-tuebingen.de/roadweb/tcpdf/localityInfoPDF/localityInfoPDF.php?locality=Powers%20Site Summary Data Sheet]"
        },
        "geometry": {
          "type": "Point",
          "coordinates": [24.601, -28.604]
        }
      },
      {
        "type": "Feature",
        "properties": {
          "title": "Putslaagte 1",
          "description": "[https://www.roceeh.uni-tuebingen.de/roadweb/tcpdf/localityInfoPDF/localityInfoPDF.php?locality=Putslaagte%201 Summary Data Sheet]"
        },
        "geometry": {
          "type": "Point",
          "coordinates": [19.18, -31.94]
        }
      },
      {
        "type": "Feature",
        "properties": {
          "title": "Putslaagte 8",
          "description": "[https://www.roceeh.uni-tuebingen.de/roadweb/tcpdf/localityInfoPDF/localityInfoPDF.php?locality=Putslaagte%208 Summary Data Sheet]"
        },
        "geometry": {
          "type": "Point",
          "coordinates": [19.153, -31.938]
        }
      },
      {
        "type": "Feature",
        "properties": {
          "title": "Ras el Wadi",
          "description": "[https://www.roceeh.uni-tuebingen.de/roadweb/tcpdf/localityInfoPDF/localityInfoPDF.php?locality=Ras%20el%20Wadi Summary Data Sheet]"
        },
        "geometry": {
          "type": "Point",
          "coordinates": [12, 31.917]
        }
      },
      {
        "type": "Feature",
        "properties": {
          "title": "Redcliff Cave",
          "description": "[https://www.roceeh.uni-tuebingen.de/roadweb/tcpdf/localityInfoPDF/localityInfoPDF.php?locality=Redcliff%20Cave Summary Data Sheet]"
        },
        "geometry": {
          "type": "Point",
          "coordinates": [29.758, -19.017]
        }
      },
      {
        "type": "Feature",
        "properties": {
          "title": "Rhino Cave",
          "description": "[https://www.roceeh.uni-tuebingen.de/roadweb/tcpdf/localityInfoPDF/localityInfoPDF.php?locality=Rhino%20Cave Summary Data Sheet]"
        },
        "geometry": {
          "type": "Point",
          "coordinates": [21.73, -18.728]
        }
      },
      {
        "type": "Feature",
        "properties": {
          "title": "Rooidam",
          "description": "[https://www.roceeh.uni-tuebingen.de/roadweb/tcpdf/localityInfoPDF/localityInfoPDF.php?locality=Rooidam Summary Data Sheet]"
        },
        "geometry": {
          "type": "Point",
          "coordinates": [24.53, -28.845]
        }
      },
      {
        "type": "Feature",
        "properties": {
          "title": "Rose Cottage Cave",
          "description": "[https://www.roceeh.uni-tuebingen.de/roadweb/tcpdf/localityInfoPDF/localityInfoPDF.php?locality=Rose%20Cottage%20Cave Summary Data Sheet]"
        },
        "geometry": {
          "type": "Point",
          "coordinates": [27.47, -29.216]
        }
      },
      {
        "type": "Feature",
        "properties": {
          "title": "Saldanha",
          "description": "[https://www.roceeh.uni-tuebingen.de/roadweb/tcpdf/localityInfoPDF/localityInfoPDF.php?locality=Saldanha Summary Data Sheet]"
        },
        "geometry": {
          "type": "Point",
          "coordinates": [18.24, -33.1]
        }
      },
      {
        "type": "Feature",
        "properties": {
          "title": "Sandspruit No.1",
          "description": "[https://www.roceeh.uni-tuebingen.de/roadweb/tcpdf/localityInfoPDF/localityInfoPDF.php?locality=Sandspruit%20No.1 Summary Data Sheet]"
        },
        "geometry": {
          "type": "Point",
          "coordinates": [30.306, -27.678]
        }
      },
      {
        "type": "Feature",
        "properties": {
          "title": "Sandspruit No.2",
          "description": "[https://www.roceeh.uni-tuebingen.de/roadweb/tcpdf/localityInfoPDF/localityInfoPDF.php?locality=Sandspruit%20No.2 Summary Data Sheet]"
        },
        "geometry": {
          "type": "Point",
          "coordinates": [30.289, -27.701]
        }
      },
      {
        "type": "Feature",
        "properties": {
          "title": "Sea Harvest",
          "description": "[https://www.roceeh.uni-tuebingen.de/roadweb/tcpdf/localityInfoPDF/localityInfoPDF.php?locality=Sea%20Harvest Summary Data Sheet]"
        },
        "geometry": {
          "type": "Point",
          "coordinates": [17.949, -33.024]
        }
      },
      {
        "type": "Feature",
        "properties": {
          "title": "Sehonghong",
          "description": "[https://www.roceeh.uni-tuebingen.de/roadweb/tcpdf/localityInfoPDF/localityInfoPDF.php?locality=Sehonghong Summary Data Sheet]"
        },
        "geometry": {
          "type": "Point",
          "coordinates": [28.783, -29.767]
        }
      },
      {
        "type": "Feature",
        "properties": {
          "title": "Sibebe Rockshelter",
          "description": "[https://www.roceeh.uni-tuebingen.de/roadweb/tcpdf/localityInfoPDF/localityInfoPDF.php?locality=Sibebe%20Rockshelter Summary Data Sheet]"
        },
        "geometry": {
          "type": "Point",
          "coordinates": [31.174, -26.262]
        }
      },
      {
        "type": "Feature",
        "properties": {
          "title": "Sibhudu Cave",
          "description": "[https://www.roceeh.uni-tuebingen.de/roadweb/tcpdf/localityInfoPDF/localityInfoPDF.php?locality=Sibhudu%20Cave Summary Data Sheet]"
        },
        "geometry": {
          "type": "Point",
          "coordinates": [31.086, -29.523]
        }
      },
      {
        "type": "Feature",
        "properties": {
          "title": "Skildergat Kop",
          "description": "[https://www.roceeh.uni-tuebingen.de/roadweb/tcpdf/localityInfoPDF/localityInfoPDF.php?locality=Skildergat%20Kop Summary Data Sheet]"
        },
        "geometry": {
          "type": "Point",
          "coordinates": [18.406, -34.117]
        }
      },
      {
        "type": "Feature",
        "properties": {
          "title": "Songwe River Valley Lake Rukwa IcIu4",
          "description": "[https://www.roceeh.uni-tuebingen.de/roadweb/tcpdf/localityInfoPDF/localityInfoPDF.php?locality=Songwe%20River%20Valley%20Lake%20Rukwa%20IcIu4 Summary Data Sheet]"
        },
        "geometry": {
          "type": "Point",
          "coordinates": [33.117, -8.717]
        }
      },
      {
        "type": "Feature",
        "properties": {
          "title": "Songwe River Valley Lake Rukwa IdIu19",
          "description": "[https://www.roceeh.uni-tuebingen.de/roadweb/tcpdf/localityInfoPDF/localityInfoPDF.php?locality=Songwe%20River%20Valley%20Lake%20Rukwa%20IdIu19 Summary Data Sheet]"
        },
        "geometry": {
          "type": "Point",
          "coordinates": [33.183, -8.767]
        }
      },
      {
        "type": "Feature",
        "properties": {
          "title": "Sterkfontein",
          "description": "[https://www.roceeh.uni-tuebingen.de/roadweb/tcpdf/localityInfoPDF/localityInfoPDF.php?locality=Sterkfontein Summary Data Sheet]"
        },
        "geometry": {
          "type": "Point",
          "coordinates": [27.735, -26.016]
        }
      },
      {
        "type": "Feature",
        "properties": {
          "title": "Strathalan Cave B",
          "description": "[https://www.roceeh.uni-tuebingen.de/roadweb/tcpdf/localityInfoPDF/localityInfoPDF.php?locality=Strathalan%20Cave%20B Summary Data Sheet]"
        },
        "geometry": {
          "type": "Point",
          "coordinates": [28.389, -30.989]
        }
      },
      {
        "type": "Feature",
        "properties": {
          "title": "Swartkrans",
          "description": "[https://www.roceeh.uni-tuebingen.de/roadweb/tcpdf/localityInfoPDF/localityInfoPDF.php?locality=Swartkrans Summary Data Sheet]"
        },
        "geometry": {
          "type": "Point",
          "coordinates": [27.756, -25.969]
        }
      },
      {
        "type": "Feature",
        "properties": {
          "title": "Taramsa 8",
          "description": "[https://www.roceeh.uni-tuebingen.de/roadweb/tcpdf/localityInfoPDF/localityInfoPDF.php?locality=Taramsa%208 Summary Data Sheet]"
        },
        "geometry": {
          "type": "Point",
          "coordinates": [32.684, 26.12]
        }
      },
      {
        "type": "Feature",
        "properties": {
          "title": "Tiras 5",
          "description": "[https://www.roceeh.uni-tuebingen.de/roadweb/tcpdf/localityInfoPDF/localityInfoPDF.php?locality=Tiras%205 Summary Data Sheet]"
        },
        "geometry": {
          "type": "Point",
          "coordinates": [16.583, -26.208]
        }
      },
      {
        "type": "Feature",
        "properties": {
          "title": "Timassas",
          "description": "[https://www.roceeh.uni-tuebingen.de/roadweb/tcpdf/localityInfoPDF/localityInfoPDF.php?locality=Timassas Summary Data Sheet]"
        },
        "geometry": {
          "type": "Point",
          "coordinates": [14, 16]
        }
      },
      {
        "type": "Feature",
        "properties": {
          "title": "Toumboura III",
          "description": "[https://www.roceeh.uni-tuebingen.de/roadweb/tcpdf/localityInfoPDF/localityInfoPDF.php?locality=Toumboura%20III Summary Data Sheet]"
        },
        "geometry": {
          "type": "Point",
          "coordinates": [-12.213, 13.955]
        }
      },
      {
        "type": "Feature",
        "properties": {
          "title": "Tshangula Cave",
          "description": "[https://www.roceeh.uni-tuebingen.de/roadweb/tcpdf/localityInfoPDF/localityInfoPDF.php?locality=Tshangula%20Cave Summary Data Sheet]"
        },
        "geometry": {
          "type": "Point",
          "coordinates": [28.57, -20.668]
        }
      },
      {
        "type": "Feature",
        "properties": {
          "title": "Tunnel Cave",
          "description": "[https://www.roceeh.uni-tuebingen.de/roadweb/tcpdf/localityInfoPDF/localityInfoPDF.php?locality=Tunnel%20Cave Summary Data Sheet]"
        },
        "geometry": {
          "type": "Point",
          "coordinates": [18.406, -34.118]
        }
      },
      {
        "type": "Feature",
        "properties": {
          "title": "Umbeli belli",
          "description": "[https://www.roceeh.uni-tuebingen.de/roadweb/tcpdf/localityInfoPDF/localityInfoPDF.php?locality=Umbeli%20belli Summary Data Sheet]"
        },
        "geometry": {
          "type": "Point",
          "coordinates": [30.686, -30.311]
        }
      },
      {
        "type": "Feature",
        "properties": {
          "title": "Umhlatuzana",
          "description": "[https://www.roceeh.uni-tuebingen.de/roadweb/tcpdf/localityInfoPDF/localityInfoPDF.php?locality=Umhlatuzana Summary Data Sheet]"
        },
        "geometry": {
          "type": "Point",
          "coordinates": [30.754, -29.81]
        }
      },
      {
        "type": "Feature",
        "properties": {
          "title": "Varsche Rivier 003",
          "description": "[https://www.roceeh.uni-tuebingen.de/roadweb/tcpdf/localityInfoPDF/localityInfoPDF.php?locality=Varsche%20Rivier%20003 Summary Data Sheet]"
        },
        "geometry": {
          "type": "Point",
          "coordinates": [18.604, -31.524]
        }
      },
      {
        "type": "Feature",
        "properties": {
          "title": "Vlakkraal",
          "description": "[https://www.roceeh.uni-tuebingen.de/roadweb/tcpdf/localityInfoPDF/localityInfoPDF.php?locality=Vlakkraal Summary Data Sheet]"
        },
        "geometry": {
          "type": "Point",
          "coordinates": [26.439, -29.177]
        }
      },
      {
        "type": "Feature",
        "properties": {
          "title": "Wadi Ghan Valley",
          "description": "[https://www.roceeh.uni-tuebingen.de/roadweb/tcpdf/localityInfoPDF/localityInfoPDF.php?locality=Wadi%20Ghan%20Valley Summary Data Sheet]"
        },
        "geometry": {
          "type": "Point",
          "coordinates": [22.083, 32.067]
        }
      },
      {
        "type": "Feature",
        "properties": {
          "title": "Wasiriya Beds Nyamita Main",
          "description": "[https://www.roceeh.uni-tuebingen.de/roadweb/tcpdf/localityInfoPDF/localityInfoPDF.php?locality=Wasiriya%20Beds%20Nyamita%20Main Summary Data Sheet]"
        },
        "geometry": {
          "type": "Point",
          "coordinates": [34.158, -0.428]
        }
      },
      {
        "type": "Feature",
        "properties": {
          "title": "Wasiriya Beds Wakondo",
          "description": "[https://www.roceeh.uni-tuebingen.de/roadweb/tcpdf/localityInfoPDF/localityInfoPDF.php?locality=Wasiriya%20Beds%20Wakondo Summary Data Sheet]"
        },
        "geometry": {
          "type": "Point",
          "coordinates": [34.173, -0.427]
        }
      },
      {
        "type": "Feature",
        "properties": {
          "title": "Wasiriya Beds Western Nyamsingula",
          "description": "[https://www.roceeh.uni-tuebingen.de/roadweb/tcpdf/localityInfoPDF/localityInfoPDF.php?locality=Wasiriya%20Beds%20Western%20Nyamsingula Summary Data Sheet]"
        },
        "geometry": {
          "type": "Point",
          "coordinates": [34.189, -0.413]
        }
      },
      {
        "type": "Feature",
        "properties": {
          "title": "Waterval",
          "description": "[https://www.roceeh.uni-tuebingen.de/roadweb/tcpdf/localityInfoPDF/localityInfoPDF.php?locality=Waterval Summary Data Sheet]"
        },
        "geometry": {
          "type": "Point",
          "coordinates": [27.979, -26.152]
        }
      },
      {
        "type": "Feature",
        "properties": {
          "title": "White Paintings Rock Shelter",
          "description": "[https://www.roceeh.uni-tuebingen.de/roadweb/tcpdf/localityInfoPDF/localityInfoPDF.php?locality=White%20Paintings%20Rock%20Shelter Summary Data Sheet]"
        },
        "geometry": {
          "type": "Point",
          "coordinates": [21.748, -18.771]
        }
      },
      {
        "type": "Feature",
        "properties": {
          "title": "Witkrans",
          "description": "[https://www.roceeh.uni-tuebingen.de/roadweb/tcpdf/localityInfoPDF/localityInfoPDF.php?locality=Witkrans Summary Data Sheet]"
        },
        "geometry": {
          "type": "Point",
          "coordinates": [24.633, -27.617]
        }
      },
      {
        "type": "Feature",
        "properties": {
          "title": "Wonderkrater",
          "description": "[https://www.roceeh.uni-tuebingen.de/roadweb/tcpdf/localityInfoPDF/localityInfoPDF.php?locality=Wonderkrater Summary Data Sheet]"
        },
        "geometry": {
          "type": "Point",
          "coordinates": [28.744, -24.43]
        }
      },
      {
        "type": "Feature",
        "properties": {
          "title": "Wonderwerk",
          "description": "[https://www.roceeh.uni-tuebingen.de/roadweb/tcpdf/localityInfoPDF/localityInfoPDF.php?locality=Wonderwerk Summary Data Sheet]"
        },
        "geometry": {
          "type": "Point",
          "coordinates": [23.554, -27.846]
        }
      },
      {
        "type": "Feature",
        "properties": {
          "title": "Yambi",
          "description": "[https://www.roceeh.uni-tuebingen.de/roadweb/tcpdf/localityInfoPDF/localityInfoPDF.php?locality=Yambi Summary Data Sheet]"
        },
        "geometry": {
          "type": "Point",
          "coordinates": [34.714, -4.277]
        }
      },
      {
        "type": "Feature",
        "properties": {
          "title": "Ysterfontein",
          "description": "[https://www.roceeh.uni-tuebingen.de/roadweb/tcpdf/localityInfoPDF/localityInfoPDF.php?locality=Ysterfontein Summary Data Sheet]"
        },
        "geometry": {
          "type": "Point",
          "coordinates": [18.151, -33.347]
        }
      },
      {
        "type": "Feature",
        "properties": {
          "title": "Zebrarivier",
          "description": "[https://www.roceeh.uni-tuebingen.de/roadweb/tcpdf/localityInfoPDF/localityInfoPDF.php?locality=Zebrarivier Summary Data Sheet]"
        },
        "geometry": {
          "type": "Point",
          "coordinates": [16.289, -24.518]
        }
      },
      {
        "type": "Feature",
        "properties": {
          "title": "Zombepata Cave",
          "description": "[https://www.roceeh.uni-tuebingen.de/roadweb/tcpdf/localityInfoPDF/localityInfoPDF.php?locality=Zombepata%20Cave Summary Data Sheet]"
        },
        "geometry": {
          "type": "Point",
          "coordinates": [30.842, -16.839]
        }
      }
    ],
    "crs": {
      "type": "name",
      "properties": {
        "name": "urn:ogc:def:crs:OGC:1.3:CRS84"
      }
    }
  }
}
