{
  "license": "CC-BY-SA-4.0",
  "description": {
    "en": "Selected Middle Paleolithic sites from the ROAD Database"
  },
  "sources": "Data retrieved from the [https://www.roceeh.uni-tuebingen.de/roadweb ROCEEH Out Of Africa Database (ROAD)] on 2025-04-08.",
  "data": {
    "type": "FeatureCollection",
    "features": [
      {
        "type": "Feature",
        "properties": {
          "title": "Abri Caminade",
          "description": "[https://www.roceeh.uni-tuebingen.de/roadweb/tcpdf/localityInfoPDF/localityInfoPDF.php?locality=Abri%20Caminade Summary Data Sheet]"
        },
        "geometry": {
          "type": "Point",
          "coordinates": [1.249, 44.868]
        }
      },
      {
        "type": "Feature",
        "properties": {
          "title": "Abri Chadourne",
          "description": "[https://www.roceeh.uni-tuebingen.de/roadweb/tcpdf/localityInfoPDF/localityInfoPDF.php?locality=Abri%20Chadourne Summary Data Sheet]"
        },
        "geometry": {
          "type": "Point",
          "coordinates": [1.016, 44.936]
        }
      },
      {
        "type": "Feature",
        "properties": {
          "title": "Abri I am Schulerloch",
          "description": "[https://www.roceeh.uni-tuebingen.de/roadweb/tcpdf/localityInfoPDF/localityInfoPDF.php?locality=Abri%20I%20am%20Schulerloch Summary Data Sheet]"
        },
        "geometry": {
          "type": "Point",
          "coordinates": [11.817, 48.928]
        }
      },
      {
        "type": "Feature",
        "properties": {
          "title": "Abri Pié Lombard",
          "description": "[https://www.roceeh.uni-tuebingen.de/roadweb/tcpdf/localityInfoPDF/localityInfoPDF.php?locality=Abri%20Pié%20Lombard Summary Data Sheet]"
        },
        "geometry": {
          "type": "Point",
          "coordinates": [7.045, 43.702]
        }
      },
      {
        "type": "Feature",
        "properties": {
          "title": "Abri du Maras",
          "description": "[https://www.roceeh.uni-tuebingen.de/roadweb/tcpdf/localityInfoPDF/localityInfoPDF.php?locality=Abri%20du%20Maras Summary Data Sheet]"
        },
        "geometry": {
          "type": "Point",
          "coordinates": [4.563, 44.312]
        }
      },
      {
        "type": "Feature",
        "properties": {
          "title": "Abric Romaní",
          "description": "[https://www.roceeh.uni-tuebingen.de/roadweb/tcpdf/localityInfoPDF/localityInfoPDF.php?locality=Abric%20Romaní Summary Data Sheet]"
        },
        "geometry": {
          "type": "Point",
          "coordinates": [1.688, 41.533]
        }
      },
      {
        "type": "Feature",
        "properties": {
          "title": "Abrigo de Navalmaíllo",
          "description": "[https://www.roceeh.uni-tuebingen.de/roadweb/tcpdf/localityInfoPDF/localityInfoPDF.php?locality=Abrigo%20de%20Navalmaíllo Summary Data Sheet]"
        },
        "geometry": {
          "type": "Point",
          "coordinates": [-3.809, 40.923]
        }
      },
      {
        "type": "Feature",
        "properties": {
          "title": "Abrigo de la Quebrada",
          "description": "[https://www.roceeh.uni-tuebingen.de/roadweb/tcpdf/localityInfoPDF/localityInfoPDF.php?locality=Abrigo%20de%20la%20Quebrada Summary Data Sheet]"
        },
        "geometry": {
          "type": "Point",
          "coordinates": [-1.014, 39.807]
        }
      },
      {
        "type": "Feature",
        "properties": {
          "title": "Achenheim",
          "description": "[https://www.roceeh.uni-tuebingen.de/roadweb/tcpdf/localityInfoPDF/localityInfoPDF.php?locality=Achenheim Summary Data Sheet]"
        },
        "geometry": {
          "type": "Point",
          "coordinates": [7.625, 48.579]
        }
      },
      {
        "type": "Feature",
        "properties": {
          "title": "Adamgarh",
          "description": "[https://www.roceeh.uni-tuebingen.de/roadweb/tcpdf/localityInfoPDF/localityInfoPDF.php?locality=Adamgarh Summary Data Sheet]"
        },
        "geometry": {
          "type": "Point",
          "coordinates": [77.735, 22.729]
        }
      },
      {
        "type": "Feature",
        "properties": {
          "title": "Adrar Bous",
          "description": "[https://www.roceeh.uni-tuebingen.de/roadweb/tcpdf/localityInfoPDF/localityInfoPDF.php?locality=Adrar%20Bous Summary Data Sheet]"
        },
        "geometry": {
          "type": "Point",
          "coordinates": [8.95, 20.3]
        }
      },
      {
        "type": "Feature",
        "properties": {
          "title": "Ain Aghbal",
          "description": "[https://www.roceeh.uni-tuebingen.de/roadweb/tcpdf/localityInfoPDF/localityInfoPDF.php?locality=Ain%20Aghbal Summary Data Sheet]"
        },
        "geometry": {
          "type": "Point",
          "coordinates": [-1.873, 34.718]
        }
      },
      {
        "type": "Feature",
        "properties": {
          "title": "Ain Difla",
          "description": "[https://www.roceeh.uni-tuebingen.de/roadweb/tcpdf/localityInfoPDF/localityInfoPDF.php?locality=Ain%20Difla Summary Data Sheet]"
        },
        "geometry": {
          "type": "Point",
          "coordinates": [35.811, 30.903]
        }
      },
      {
        "type": "Feature",
        "properties": {
          "title": "Ain El Guettar",
          "description": "[https://www.roceeh.uni-tuebingen.de/roadweb/tcpdf/localityInfoPDF/localityInfoPDF.php?locality=Ain%20El%20Guettar Summary Data Sheet]"
        },
        "geometry": {
          "type": "Point",
          "coordinates": [9.582, 34.66]
        }
      },
      {
        "type": "Feature",
        "properties": {
          "title": "Ain Fritissa",
          "description": "[https://www.roceeh.uni-tuebingen.de/roadweb/tcpdf/localityInfoPDF/localityInfoPDF.php?locality=Ain%20Fritissa Summary Data Sheet]"
        },
        "geometry": {
          "type": "Point",
          "coordinates": [-3.551, 33.618]
        }
      },
      {
        "type": "Feature",
        "properties": {
          "title": "Ain Mara",
          "description": "[https://www.roceeh.uni-tuebingen.de/roadweb/tcpdf/localityInfoPDF/localityInfoPDF.php?locality=Ain%20Mara Summary Data Sheet]"
        },
        "geometry": {
          "type": "Point",
          "coordinates": [22.38, 32.75]
        }
      },
      {
        "type": "Feature",
        "properties": {
          "title": "Ain Oum Henda 2",
          "description": "[https://www.roceeh.uni-tuebingen.de/roadweb/tcpdf/localityInfoPDF/localityInfoPDF.php?locality=Ain%20Oum%20Henda%202 Summary Data Sheet]"
        },
        "geometry": {
          "type": "Point",
          "coordinates": [9.4, 34.717]
        }
      },
      {
        "type": "Feature",
        "properties": {
          "title": "Al Wusta",
          "description": "[https://www.roceeh.uni-tuebingen.de/roadweb/tcpdf/localityInfoPDF/localityInfoPDF.php?locality=Al%20Wusta Summary Data Sheet]"
        },
        "geometry": {
          "type": "Point",
          "coordinates": [38.098, 27.257]
        }
      },
      {
        "type": "Feature",
        "properties": {
          "title": "Amalda III",
          "description": "[https://www.roceeh.uni-tuebingen.de/roadweb/tcpdf/localityInfoPDF/localityInfoPDF.php?locality=Amalda%20III Summary Data Sheet]"
        },
        "geometry": {
          "type": "Point",
          "coordinates": [-2.207, 43.234]
        }
      },
      {
        "type": "Feature",
        "properties": {
          "title": "Amud Cave",
          "description": "[https://www.roceeh.uni-tuebingen.de/roadweb/tcpdf/localityInfoPDF/localityInfoPDF.php?locality=Amud%20Cave Summary Data Sheet]"
        },
        "geometry": {
          "type": "Point",
          "coordinates": [35.502, 32.872]
        }
      },
      {
        "type": "Feature",
        "properties": {
          "title": "Andance",
          "description": "[https://www.roceeh.uni-tuebingen.de/roadweb/tcpdf/localityInfoPDF/localityInfoPDF.php?locality=Andance Summary Data Sheet]"
        },
        "geometry": {
          "type": "Point",
          "coordinates": [4.687, 44.683]
        }
      },
      {
        "type": "Feature",
        "properties": {
          "title": "Angé",
          "description": "[https://www.roceeh.uni-tuebingen.de/roadweb/tcpdf/localityInfoPDF/localityInfoPDF.php?locality=Angé Summary Data Sheet]"
        },
        "geometry": {
          "type": "Point",
          "coordinates": [1.255, 47.295]
        }
      },
      {
        "type": "Feature",
        "properties": {
          "title": "Aranbaltza II",
          "description": "[https://www.roceeh.uni-tuebingen.de/roadweb/tcpdf/localityInfoPDF/localityInfoPDF.php?locality=Aranbaltza%20II Summary Data Sheet]"
        },
        "geometry": {
          "type": "Point",
          "coordinates": [-2.965, 43.399]
        }
      },
      {
        "type": "Feature",
        "properties": {
          "title": "Arbreda Cave",
          "description": "[https://www.roceeh.uni-tuebingen.de/roadweb/tcpdf/localityInfoPDF/localityInfoPDF.php?locality=Arbreda%20Cave Summary Data Sheet]"
        },
        "geometry": {
          "type": "Point",
          "coordinates": [2.747, 42.161]
        }
      },
      {
        "type": "Feature",
        "properties": {
          "title": "Arcy-sur-Cure - Grotte de l_Hyène",
          "description": "[https://www.roceeh.uni-tuebingen.de/roadweb/tcpdf/localityInfoPDF/localityInfoPDF.php?locality=Arcy-sur-Cure%20-%20Grotte%20de%20l_Hyène Summary Data Sheet]"
        },
        "geometry": {
          "type": "Point",
          "coordinates": [3.763, 47.591]
        }
      },
      {
        "type": "Feature",
        "properties": {
          "title": "Arcy-sur-Cure - Grotte du Bison",
          "description": "[https://www.roceeh.uni-tuebingen.de/roadweb/tcpdf/localityInfoPDF/localityInfoPDF.php?locality=Arcy-sur-Cure%20-%20Grotte%20du%20Bison Summary Data Sheet]"
        },
        "geometry": {
          "type": "Point",
          "coordinates": [3.762, 47.59]
        }
      },
      {
        "type": "Feature",
        "properties": {
          "title": "Arcy-sur-Cure - Grotte du Renne",
          "description": "[https://www.roceeh.uni-tuebingen.de/roadweb/tcpdf/localityInfoPDF/localityInfoPDF.php?locality=Arcy-sur-Cure%20-%20Grotte%20du%20Renne Summary Data Sheet]"
        },
        "geometry": {
          "type": "Point",
          "coordinates": [3.762, 47.591]
        }
      },
      {
        "type": "Feature",
        "properties": {
          "title": "Ariendorf",
          "description": "[https://www.roceeh.uni-tuebingen.de/roadweb/tcpdf/localityInfoPDF/localityInfoPDF.php?locality=Ariendorf Summary Data Sheet]"
        },
        "geometry": {
          "type": "Point",
          "coordinates": [7.3, 50.517]
        }
      },
      {
        "type": "Feature",
        "properties": {
          "title": "Arlanpe",
          "description": "[https://www.roceeh.uni-tuebingen.de/roadweb/tcpdf/localityInfoPDF/localityInfoPDF.php?locality=Arlanpe Summary Data Sheet]"
        },
        "geometry": {
          "type": "Point",
          "coordinates": [-2.763, 43.193]
        }
      },
      {
        "type": "Feature",
        "properties": {
          "title": "Arma delle Manie",
          "description": "[https://www.roceeh.uni-tuebingen.de/roadweb/tcpdf/localityInfoPDF/localityInfoPDF.php?locality=Arma%20delle%20Manie Summary Data Sheet]"
        },
        "geometry": {
          "type": "Point",
          "coordinates": [8.376, 44.199]
        }
      },
      {
        "type": "Feature",
        "properties": {
          "title": "Arrillor",
          "description": "[https://www.roceeh.uni-tuebingen.de/roadweb/tcpdf/localityInfoPDF/localityInfoPDF.php?locality=Arrillor Summary Data Sheet]"
        },
        "geometry": {
          "type": "Point",
          "coordinates": [-2.739, 42.971]
        }
      },
      {
        "type": "Feature",
        "properties": {
          "title": "Artenac",
          "description": "[https://www.roceeh.uni-tuebingen.de/roadweb/tcpdf/localityInfoPDF/localityInfoPDF.php?locality=Artenac Summary Data Sheet]"
        },
        "geometry": {
          "type": "Point",
          "coordinates": [0.332, 45.838]
        }
      },
      {
        "type": "Feature",
        "properties": {
          "title": "Asprochaliko",
          "description": "[https://www.roceeh.uni-tuebingen.de/roadweb/tcpdf/localityInfoPDF/localityInfoPDF.php?locality=Asprochaliko Summary Data Sheet]"
        },
        "geometry": {
          "type": "Point",
          "coordinates": [20.84, 39.24]
        }
      },
      {
        "type": "Feature",
        "properties": {
          "title": "Assen",
          "description": "[https://www.roceeh.uni-tuebingen.de/roadweb/tcpdf/localityInfoPDF/localityInfoPDF.php?locality=Assen Summary Data Sheet]"
        },
        "geometry": {
          "type": "Point",
          "coordinates": [6.487, 53.083]
        }
      },
      {
        "type": "Feature",
        "properties": {
          "title": "Attirampakkam",
          "description": "[https://www.roceeh.uni-tuebingen.de/roadweb/tcpdf/localityInfoPDF/localityInfoPDF.php?locality=Attirampakkam Summary Data Sheet]"
        },
        "geometry": {
          "type": "Point",
          "coordinates": [79.877, 13.236]
        }
      },
      {
        "type": "Feature",
        "properties": {
          "title": "Axlor",
          "description": "[https://www.roceeh.uni-tuebingen.de/roadweb/tcpdf/localityInfoPDF/localityInfoPDF.php?locality=Axlor Summary Data Sheet]"
        },
        "geometry": {
          "type": "Point",
          "coordinates": [-2.729, 43.121]
        }
      },
      {
        "type": "Feature",
        "properties": {
          "title": "Aybut Al Auwal",
          "description": "[https://www.roceeh.uni-tuebingen.de/roadweb/tcpdf/localityInfoPDF/localityInfoPDF.php?locality=Aybut%20Al%20Auwal Summary Data Sheet]"
        },
        "geometry": {
          "type": "Point",
          "coordinates": [53.469, 17.431]
        }
      },
      {
        "type": "Feature",
        "properties": {
          "title": "Azokh-1 Cave",
          "description": "[https://www.roceeh.uni-tuebingen.de/roadweb/tcpdf/localityInfoPDF/localityInfoPDF.php?locality=Azokh-1%20Cave Summary Data Sheet]"
        },
        "geometry": {
          "type": "Point",
          "coordinates": [46.988, 39.62]
        }
      },
      {
        "type": "Feature",
        "properties": {
          "title": "Bacho Kiro",
          "description": "[https://www.roceeh.uni-tuebingen.de/roadweb/tcpdf/localityInfoPDF/localityInfoPDF.php?locality=Bacho%20Kiro Summary Data Sheet]"
        },
        "geometry": {
          "type": "Point",
          "coordinates": [25.43, 42.947]
        }
      },
      {
        "type": "Feature",
        "properties": {
          "title": "Balver Cave",
          "description": "[https://www.roceeh.uni-tuebingen.de/roadweb/tcpdf/localityInfoPDF/localityInfoPDF.php?locality=Balver%20Cave Summary Data Sheet]"
        },
        "geometry": {
          "type": "Point",
          "coordinates": [7.874, 51.337]
        }
      },
      {
        "type": "Feature",
        "properties": {
          "title": "Barakai",
          "description": "[https://www.roceeh.uni-tuebingen.de/roadweb/tcpdf/localityInfoPDF/localityInfoPDF.php?locality=Barakai Summary Data Sheet]"
        },
        "geometry": {
          "type": "Point",
          "coordinates": [40.6, 44.2]
        }
      },
      {
        "type": "Feature",
        "properties": {
          "title": "Barda Balka",
          "description": "[https://www.roceeh.uni-tuebingen.de/roadweb/tcpdf/localityInfoPDF/localityInfoPDF.php?locality=Barda%20Balka Summary Data Sheet]"
        },
        "geometry": {
          "type": "Point",
          "coordinates": [44.86, 35.56]
        }
      },
      {
        "type": "Feature",
        "properties": {
          "title": "Barma Grande",
          "description": "[https://www.roceeh.uni-tuebingen.de/roadweb/tcpdf/localityInfoPDF/localityInfoPDF.php?locality=Barma%20Grande Summary Data Sheet]"
        },
        "geometry": {
          "type": "Point",
          "coordinates": [7.535, 43.784]
        }
      },
      {
        "type": "Feature",
        "properties": {
          "title": "Bau de l Aubesier",
          "description": "[https://www.roceeh.uni-tuebingen.de/roadweb/tcpdf/localityInfoPDF/localityInfoPDF.php?locality=Bau%20de%20l%20Aubesier Summary Data Sheet]"
        },
        "geometry": {
          "type": "Point",
          "coordinates": [5.338, 44.045]
        }
      },
      {
        "type": "Feature",
        "properties": {
          "title": "Baume Bonne",
          "description": "[https://www.roceeh.uni-tuebingen.de/roadweb/tcpdf/localityInfoPDF/localityInfoPDF.php?locality=Baume%20Bonne Summary Data Sheet]"
        },
        "geometry": {
          "type": "Point",
          "coordinates": [6.056, 43.7]
        }
      },
      {
        "type": "Feature",
        "properties": {
          "title": "Baume Flandin",
          "description": "[https://www.roceeh.uni-tuebingen.de/roadweb/tcpdf/localityInfoPDF/localityInfoPDF.php?locality=Baume%20Flandin Summary Data Sheet]"
        },
        "geometry": {
          "type": "Point",
          "coordinates": [4.398, 44.3]
        }
      },
      {
        "type": "Feature",
        "properties": {
          "title": "Baume de Gigny",
          "description": "[https://www.roceeh.uni-tuebingen.de/roadweb/tcpdf/localityInfoPDF/localityInfoPDF.php?locality=Baume%20de%20Gigny Summary Data Sheet]"
        },
        "geometry": {
          "type": "Point",
          "coordinates": [5.475, 46.47]
        }
      },
      {
        "type": "Feature",
        "properties": {
          "title": "Baume-Vallée",
          "description": "[https://www.roceeh.uni-tuebingen.de/roadweb/tcpdf/localityInfoPDF/localityInfoPDF.php?locality=Baume-Vallée Summary Data Sheet]"
        },
        "geometry": {
          "type": "Point",
          "coordinates": [3.894, 44.945]
        }
      },
      {
        "type": "Feature",
        "properties": {
          "title": "Bawa Yawan",
          "description": "[https://www.roceeh.uni-tuebingen.de/roadweb/tcpdf/localityInfoPDF/localityInfoPDF.php?locality=Bawa%20Yawan Summary Data Sheet]"
        },
        "geometry": {
          "type": "Point",
          "coordinates": [46.93, 34.64]
        }
      },
      {
        "type": "Feature",
        "properties": {
          "title": "Bañugues",
          "description": "[https://www.roceeh.uni-tuebingen.de/roadweb/tcpdf/localityInfoPDF/localityInfoPDF.php?locality=Bañugues Summary Data Sheet]"
        },
        "geometry": {
          "type": "Point",
          "coordinates": [-5.81, 43.64]
        }
      },
      {
        "type": "Feature",
        "properties": {
          "title": "Becov I",
          "description": "[https://www.roceeh.uni-tuebingen.de/roadweb/tcpdf/localityInfoPDF/localityInfoPDF.php?locality=Becov%20I Summary Data Sheet]"
        },
        "geometry": {
          "type": "Point",
          "coordinates": [13.73, 50.424]
        }
      },
      {
        "type": "Feature",
        "properties": {
          "title": "Beit Allam",
          "description": "[https://www.roceeh.uni-tuebingen.de/roadweb/tcpdf/localityInfoPDF/localityInfoPDF.php?locality=Beit%20Allam Summary Data Sheet]"
        },
        "geometry": {
          "type": "Point",
          "coordinates": [31.864, 26.236]
        }
      },
      {
        "type": "Feature",
        "properties": {
          "title": "Beit Khallaf 2",
          "description": "[https://www.roceeh.uni-tuebingen.de/roadweb/tcpdf/localityInfoPDF/localityInfoPDF.php?locality=Beit%20Khallaf%202 Summary Data Sheet]"
        },
        "geometry": {
          "type": "Point",
          "coordinates": [31.761, 26.314]
        }
      },
      {
        "type": "Feature",
        "properties": {
          "title": "Beit Khallaf 3",
          "description": "[https://www.roceeh.uni-tuebingen.de/roadweb/tcpdf/localityInfoPDF/localityInfoPDF.php?locality=Beit%20Khallaf%203 Summary Data Sheet]"
        },
        "geometry": {
          "type": "Point",
          "coordinates": [31.761, 26.314]
        }
      },
      {
        "type": "Feature",
        "properties": {
          "title": "Benzu Rockshelter",
          "description": "[https://www.roceeh.uni-tuebingen.de/roadweb/tcpdf/localityInfoPDF/localityInfoPDF.php?locality=Benzu%20Rockshelter Summary Data Sheet]"
        },
        "geometry": {
          "type": "Point",
          "coordinates": [-5.379, 35.912]
        }
      },
      {
        "type": "Feature",
        "properties": {
          "title": "Betovo",
          "description": "[https://www.roceeh.uni-tuebingen.de/roadweb/tcpdf/localityInfoPDF/localityInfoPDF.php?locality=Betovo Summary Data Sheet]"
        },
        "geometry": {
          "type": "Point",
          "coordinates": [34.009, 53.352]
        }
      },
      {
        "type": "Feature",
        "properties": {
          "title": "Bettencourt-Saint-Ouen",
          "description": "[https://www.roceeh.uni-tuebingen.de/roadweb/tcpdf/localityInfoPDF/localityInfoPDF.php?locality=Bettencourt-Saint-Ouen Summary Data Sheet]"
        },
        "geometry": {
          "type": "Point",
          "coordinates": [2.117, 50.014]
        }
      },
      {
        "type": "Feature",
        "properties": {
          "title": "Bhimbetka (IIIF-23)",
          "description": "[https://www.roceeh.uni-tuebingen.de/roadweb/tcpdf/localityInfoPDF/localityInfoPDF.php?locality=Bhimbetka%20(IIIF-23) Summary Data Sheet]"
        },
        "geometry": {
          "type": "Point",
          "coordinates": [77.617, 22.833]
        }
      },
      {
        "type": "Feature",
        "properties": {
          "title": "Biache-Saint-Vaast",
          "description": "[https://www.roceeh.uni-tuebingen.de/roadweb/tcpdf/localityInfoPDF/localityInfoPDF.php?locality=Biache-Saint-Vaast Summary Data Sheet]"
        },
        "geometry": {
          "type": "Point",
          "coordinates": [2.949, 50.314]
        }
      },
      {
        "type": "Feature",
        "properties": {
          "title": "Bidart",
          "description": "[https://www.roceeh.uni-tuebingen.de/roadweb/tcpdf/localityInfoPDF/localityInfoPDF.php?locality=Bidart Summary Data Sheet]"
        },
        "geometry": {
          "type": "Point",
          "coordinates": [-1.582, 43.435]
        }
      },
      {
        "type": "Feature",
        "properties": {
          "title": "Bioce",
          "description": "[https://www.roceeh.uni-tuebingen.de/roadweb/tcpdf/localityInfoPDF/localityInfoPDF.php?locality=Bioce Summary Data Sheet]"
        },
        "geometry": {
          "type": "Point",
          "coordinates": [19.35, 42.506]
        }
      },
      {
        "type": "Feature",
        "properties": {
          "title": "Bir Sahara East",
          "description": "[https://www.roceeh.uni-tuebingen.de/roadweb/tcpdf/localityInfoPDF/localityInfoPDF.php?locality=Bir%20Sahara%20East Summary Data Sheet]"
        },
        "geometry": {
          "type": "Point",
          "coordinates": [28.75, 22.92]
        }
      },
      {
        "type": "Feature",
        "properties": {
          "title": "Bir Tarfawi",
          "description": "[https://www.roceeh.uni-tuebingen.de/roadweb/tcpdf/localityInfoPDF/localityInfoPDF.php?locality=Bir%20Tarfawi Summary Data Sheet]"
        },
        "geometry": {
          "type": "Point",
          "coordinates": [28.75, 22.92]
        }
      },
      {
        "type": "Feature",
        "properties": {
          "title": "Biryuchiya Balka-2",
          "description": "[https://www.roceeh.uni-tuebingen.de/roadweb/tcpdf/localityInfoPDF/localityInfoPDF.php?locality=Biryuchiya%20Balka-2 Summary Data Sheet]"
        },
        "geometry": {
          "type": "Point",
          "coordinates": [41.116, 47.815]
        }
      },
      {
        "type": "Feature",
        "properties": {
          "title": "Bisnik Cave",
          "description": "[https://www.roceeh.uni-tuebingen.de/roadweb/tcpdf/localityInfoPDF/localityInfoPDF.php?locality=Bisnik%20Cave Summary Data Sheet]"
        },
        "geometry": {
          "type": "Point",
          "coordinates": [19.665, 50.426]
        }
      },
      {
        "type": "Feature",
        "properties": {
          "title": "Bissy-sur-Fley - La Clôsure",
          "description": "[https://www.roceeh.uni-tuebingen.de/roadweb/tcpdf/localityInfoPDF/localityInfoPDF.php?locality=Bissy-sur-Fley%20-%20La%20Clôsure Summary Data Sheet]"
        },
        "geometry": {
          "type": "Point",
          "coordinates": [4.628, 46.674]
        }
      },
      {
        "type": "Feature",
        "properties": {
          "title": "Bizmoune Cave",
          "description": "[https://www.roceeh.uni-tuebingen.de/roadweb/tcpdf/localityInfoPDF/localityInfoPDF.php?locality=Bizmoune%20Cave Summary Data Sheet]"
        },
        "geometry": {
          "type": "Point",
          "coordinates": [31.677, 9.569]
        }
      },
      {
        "type": "Feature",
        "properties": {
          "title": "Bockstein-Abhang",
          "description": "[https://www.roceeh.uni-tuebingen.de/roadweb/tcpdf/localityInfoPDF/localityInfoPDF.php?locality=Bockstein-Abhang Summary Data Sheet]"
        },
        "geometry": {
          "type": "Point",
          "coordinates": [10.155, 48.554]
        }
      },
      {
        "type": "Feature",
        "properties": {
          "title": "Bockstein-Brandplatte",
          "description": "[https://www.roceeh.uni-tuebingen.de/roadweb/tcpdf/localityInfoPDF/localityInfoPDF.php?locality=Bockstein-Brandplatte Summary Data Sheet]"
        },
        "geometry": {
          "type": "Point",
          "coordinates": [10.155, 48.554]
        }
      },
      {
        "type": "Feature",
        "properties": {
          "title": "Bockstein-Grotte",
          "description": "[https://www.roceeh.uni-tuebingen.de/roadweb/tcpdf/localityInfoPDF/localityInfoPDF.php?locality=Bockstein-Grotte Summary Data Sheet]"
        },
        "geometry": {
          "type": "Point",
          "coordinates": [10.155, 48.554]
        }
      },
      {
        "type": "Feature",
        "properties": {
          "title": "Bockstein-Törle",
          "description": "[https://www.roceeh.uni-tuebingen.de/roadweb/tcpdf/localityInfoPDF/localityInfoPDF.php?locality=Bockstein-Törle Summary Data Sheet]"
        },
        "geometry": {
          "type": "Point",
          "coordinates": [10.155, 48.554]
        }
      },
      {
        "type": "Feature",
        "properties": {
          "title": "Bocksteinhöhle",
          "description": "[https://www.roceeh.uni-tuebingen.de/roadweb/tcpdf/localityInfoPDF/localityInfoPDF.php?locality=Bocksteinhöhle Summary Data Sheet]"
        },
        "geometry": {
          "type": "Point",
          "coordinates": [10.155, 48.554]
        }
      },
      {
        "type": "Feature",
        "properties": {
          "title": "Bocksteinschmiede-Bocksteinloch",
          "description": "[https://www.roceeh.uni-tuebingen.de/roadweb/tcpdf/localityInfoPDF/localityInfoPDF.php?locality=Bocksteinschmiede-Bocksteinloch Summary Data Sheet]"
        },
        "geometry": {
          "type": "Point",
          "coordinates": [10.155, 48.554]
        }
      },
      {
        "type": "Feature",
        "properties": {
          "title": "Bogdanovka",
          "description": "[https://www.roceeh.uni-tuebingen.de/roadweb/tcpdf/localityInfoPDF/localityInfoPDF.php?locality=Bogdanovka Summary Data Sheet]"
        },
        "geometry": {
          "type": "Point",
          "coordinates": [59.067, 52.4]
        }
      },
      {
        "type": "Feature",
        "properties": {
          "title": "Bojnice III Cave Moat",
          "description": "[https://www.roceeh.uni-tuebingen.de/roadweb/tcpdf/localityInfoPDF/localityInfoPDF.php?locality=Bojnice%20III%20Cave%20Moat Summary Data Sheet]"
        },
        "geometry": {
          "type": "Point",
          "coordinates": [18.578, 48.78]
        }
      },
      {
        "type": "Feature",
        "properties": {
          "title": "Boker Tachtit",
          "description": "[https://www.roceeh.uni-tuebingen.de/roadweb/tcpdf/localityInfoPDF/localityInfoPDF.php?locality=Boker%20Tachtit Summary Data Sheet]"
        },
        "geometry": {
          "type": "Point",
          "coordinates": [34.779, 30.842]
        }
      },
      {
        "type": "Feature",
        "properties": {
          "title": "Bollschweil",
          "description": "[https://www.roceeh.uni-tuebingen.de/roadweb/tcpdf/localityInfoPDF/localityInfoPDF.php?locality=Bollschweil Summary Data Sheet]"
        },
        "geometry": {
          "type": "Point",
          "coordinates": [7.779, 47.933]
        }
      },
      {
        "type": "Feature",
        "properties": {
          "title": "Bolomor Cave",
          "description": "[https://www.roceeh.uni-tuebingen.de/roadweb/tcpdf/localityInfoPDF/localityInfoPDF.php?locality=Bolomor%20Cave Summary Data Sheet]"
        },
        "geometry": {
          "type": "Point",
          "coordinates": [-0.25, 39.059]
        }
      },
      {
        "type": "Feature",
        "properties": {
          "title": "Bondi Cave",
          "description": "[https://www.roceeh.uni-tuebingen.de/roadweb/tcpdf/localityInfoPDF/localityInfoPDF.php?locality=Bondi%20Cave Summary Data Sheet]"
        },
        "geometry": {
          "type": "Point",
          "coordinates": [43.28, 42.33]
        }
      },
      {
        "type": "Feature",
        "properties": {
          "title": "Bordu Mare Cave",
          "description": "[https://www.roceeh.uni-tuebingen.de/roadweb/tcpdf/localityInfoPDF/localityInfoPDF.php?locality=Bordu%20Mare%20Cave Summary Data Sheet]"
        },
        "geometry": {
          "type": "Point",
          "coordinates": [23.117, 45.517]
        }
      },
      {
        "type": "Feature",
        "properties": {
          "title": "Brassempouy_Grotte des Hyenes",
          "description": "[https://www.roceeh.uni-tuebingen.de/roadweb/tcpdf/localityInfoPDF/localityInfoPDF.php?locality=Brassempouy_Grotte%20des%20Hyenes Summary Data Sheet]"
        },
        "geometry": {
          "type": "Point",
          "coordinates": [-0.717, 43.63]
        }
      },
      {
        "type": "Feature",
        "properties": {
          "title": "Brassempouy_Grotte du Pape",
          "description": "[https://www.roceeh.uni-tuebingen.de/roadweb/tcpdf/localityInfoPDF/localityInfoPDF.php?locality=Brassempouy_Grotte%20du%20Pape Summary Data Sheet]"
        },
        "geometry": {
          "type": "Point",
          "coordinates": [-0.717, 43.63]
        }
      },
      {
        "type": "Feature",
        "properties": {
          "title": "Breuil",
          "description": "[https://www.roceeh.uni-tuebingen.de/roadweb/tcpdf/localityInfoPDF/localityInfoPDF.php?locality=Breuil Summary Data Sheet]"
        },
        "geometry": {
          "type": "Point",
          "coordinates": [13.037, 41.239]
        }
      },
      {
        "type": "Feature",
        "properties": {
          "title": "Brillenhöhle",
          "description": "[https://www.roceeh.uni-tuebingen.de/roadweb/tcpdf/localityInfoPDF/localityInfoPDF.php?locality=Brillenhöhle Summary Data Sheet]"
        },
        "geometry": {
          "type": "Point",
          "coordinates": [9.778, 48.405]
        }
      },
      {
        "type": "Feature",
        "properties": {
          "title": "Broion",
          "description": "[https://www.roceeh.uni-tuebingen.de/roadweb/tcpdf/localityInfoPDF/localityInfoPDF.php?locality=Broion Summary Data Sheet]"
        },
        "geometry": {
          "type": "Point",
          "coordinates": [11.6, 45.47]
        }
      },
      {
        "type": "Feature",
        "properties": {
          "title": "Bronze Cave",
          "description": "[https://www.roceeh.uni-tuebingen.de/roadweb/tcpdf/localityInfoPDF/localityInfoPDF.php?locality=Bronze%20Cave Summary Data Sheet]"
        },
        "geometry": {
          "type": "Point",
          "coordinates": [42.862, 42.279]
        }
      },
      {
        "type": "Feature",
        "properties": {
          "title": "Bruniquel",
          "description": "[https://www.roceeh.uni-tuebingen.de/roadweb/tcpdf/localityInfoPDF/localityInfoPDF.php?locality=Bruniquel Summary Data Sheet]"
        },
        "geometry": {
          "type": "Point",
          "coordinates": [1.677, 44.065]
        }
      },
      {
        "type": "Feature",
        "properties": {
          "title": "Buhlen_Oberer Fundplatz",
          "description": "[https://www.roceeh.uni-tuebingen.de/roadweb/tcpdf/localityInfoPDF/localityInfoPDF.php?locality=Buhlen_Oberer%20Fundplatz Summary Data Sheet]"
        },
        "geometry": {
          "type": "Point",
          "coordinates": [9.087, 51.191]
        }
      },
      {
        "type": "Feature",
        "properties": {
          "title": "Buhlen_Unterer Fundplatz",
          "description": "[https://www.roceeh.uni-tuebingen.de/roadweb/tcpdf/localityInfoPDF/localityInfoPDF.php?locality=Buhlen_Unterer%20Fundplatz Summary Data Sheet]"
        },
        "geometry": {
          "type": "Point",
          "coordinates": [9.087, 51.191]
        }
      },
      {
        "type": "Feature",
        "properties": {
          "title": "Buraca Escura",
          "description": "[https://www.roceeh.uni-tuebingen.de/roadweb/tcpdf/localityInfoPDF/localityInfoPDF.php?locality=Buraca%20Escura Summary Data Sheet]"
        },
        "geometry": {
          "type": "Point",
          "coordinates": [-8.552, 39.98]
        }
      },
      {
        "type": "Feature",
        "properties": {
          "title": "Buraca Grande",
          "description": "[https://www.roceeh.uni-tuebingen.de/roadweb/tcpdf/localityInfoPDF/localityInfoPDF.php?locality=Buraca%20Grande Summary Data Sheet]"
        },
        "geometry": {
          "type": "Point",
          "coordinates": [-8.547, 39.981]
        }
      },
      {
        "type": "Feature",
        "properties": {
          "title": "Buran Kaya III",
          "description": "[https://www.roceeh.uni-tuebingen.de/roadweb/tcpdf/localityInfoPDF/localityInfoPDF.php?locality=Buran%20Kaya%20III Summary Data Sheet]"
        },
        "geometry": {
          "type": "Point",
          "coordinates": [34.404, 45.003]
        }
      },
      {
        "type": "Feature",
        "properties": {
          "title": "Burgtonna",
          "description": "[https://www.roceeh.uni-tuebingen.de/roadweb/tcpdf/localityInfoPDF/localityInfoPDF.php?locality=Burgtonna Summary Data Sheet]"
        },
        "geometry": {
          "type": "Point",
          "coordinates": [10.732, 51.074]
        }
      },
      {
        "type": "Feature",
        "properties": {
          "title": "Byzovaya",
          "description": "[https://www.roceeh.uni-tuebingen.de/roadweb/tcpdf/localityInfoPDF/localityInfoPDF.php?locality=Byzovaya Summary Data Sheet]"
        },
        "geometry": {
          "type": "Point",
          "coordinates": [57.42, 65.024]
        }
      },
      {
        "type": "Feature",
        "properties": {
          "title": "Börslingen",
          "description": "[https://www.roceeh.uni-tuebingen.de/roadweb/tcpdf/localityInfoPDF/localityInfoPDF.php?locality=Börslingen Summary Data Sheet]"
        },
        "geometry": {
          "type": "Point",
          "coordinates": [10.062, 48.539]
        }
      },
      {
        "type": "Feature",
        "properties": {
          "title": "Campanoz",
          "description": "[https://www.roceeh.uni-tuebingen.de/roadweb/tcpdf/localityInfoPDF/localityInfoPDF.php?locality=Campanoz Summary Data Sheet]"
        },
        "geometry": {
          "type": "Point",
          "coordinates": [13.895, 44.844]
        }
      },
      {
        "type": "Feature",
        "properties": {
          "title": "Canaule II",
          "description": "[https://www.roceeh.uni-tuebingen.de/roadweb/tcpdf/localityInfoPDF/localityInfoPDF.php?locality=Canaule%20II Summary Data Sheet]"
        },
        "geometry": {
          "type": "Point",
          "coordinates": [0.559, 44.856]
        }
      },
      {
        "type": "Feature",
        "properties": {
          "title": "Caours",
          "description": "[https://www.roceeh.uni-tuebingen.de/roadweb/tcpdf/localityInfoPDF/localityInfoPDF.php?locality=Caours Summary Data Sheet]"
        },
        "geometry": {
          "type": "Point",
          "coordinates": [1.883, 50.131]
        }
      },
      {
        "type": "Feature",
        "properties": {
          "title": "Capelvenere",
          "description": "[https://www.roceeh.uni-tuebingen.de/roadweb/tcpdf/localityInfoPDF/localityInfoPDF.php?locality=Capelvenere Summary Data Sheet]"
        },
        "geometry": {
          "type": "Point",
          "coordinates": [17.979, 40.142]
        }
      },
      {
        "type": "Feature",
        "properties": {
          "title": "Cardina-Salto do Boi",
          "description": "[https://www.roceeh.uni-tuebingen.de/roadweb/tcpdf/localityInfoPDF/localityInfoPDF.php?locality=Cardina-Salto%20do%20Boi Summary Data Sheet]"
        },
        "geometry": {
          "type": "Point",
          "coordinates": [-7.101, 40.979]
        }
      },
      {
        "type": "Feature",
        "properties": {
          "title": "Carihuela",
          "description": "[https://www.roceeh.uni-tuebingen.de/roadweb/tcpdf/localityInfoPDF/localityInfoPDF.php?locality=Carihuela Summary Data Sheet]"
        },
        "geometry": {
          "type": "Point",
          "coordinates": [-3.43, 37.449]
        }
      },
      {
        "type": "Feature",
        "properties": {
          "title": "Castelcivita",
          "description": "[https://www.roceeh.uni-tuebingen.de/roadweb/tcpdf/localityInfoPDF/localityInfoPDF.php?locality=Castelcivita Summary Data Sheet]"
        },
        "geometry": {
          "type": "Point",
          "coordinates": [15.209, 40.495]
        }
      },
      {
        "type": "Feature",
        "properties": {
          "title": "Caune de l Arago",
          "description": "[https://www.roceeh.uni-tuebingen.de/roadweb/tcpdf/localityInfoPDF/localityInfoPDF.php?locality=Caune%20de%20l%20Arago Summary Data Sheet]"
        },
        "geometry": {
          "type": "Point",
          "coordinates": [2.755, 42.84]
        }
      },
      {
        "type": "Feature",
        "properties": {
          "title": "Chagyrskaya",
          "description": "[https://www.roceeh.uni-tuebingen.de/roadweb/tcpdf/localityInfoPDF/localityInfoPDF.php?locality=Chagyrskaya Summary Data Sheet]"
        },
        "geometry": {
          "type": "Point",
          "coordinates": [83.126, 51.422]
        }
      },
      {
        "type": "Feature",
        "properties": {
          "title": "Champ Grand",
          "description": "[https://www.roceeh.uni-tuebingen.de/roadweb/tcpdf/localityInfoPDF/localityInfoPDF.php?locality=Champ%20Grand Summary Data Sheet]"
        },
        "geometry": {
          "type": "Point",
          "coordinates": [4.011, 45.971]
        }
      },
      {
        "type": "Feature",
        "properties": {
          "title": "Champlost",
          "description": "[https://www.roceeh.uni-tuebingen.de/roadweb/tcpdf/localityInfoPDF/localityInfoPDF.php?locality=Champlost Summary Data Sheet]"
        },
        "geometry": {
          "type": "Point",
          "coordinates": [3.681, 48.017]
        }
      },
      {
        "type": "Feature",
        "properties": {
          "title": "Champs-de-Bossuet",
          "description": "[https://www.roceeh.uni-tuebingen.de/roadweb/tcpdf/localityInfoPDF/localityInfoPDF.php?locality=Champs-de-Bossuet Summary Data Sheet]"
        },
        "geometry": {
          "type": "Point",
          "coordinates": [-0.218, 44.984]
        }
      },
      {
        "type": "Feature",
        "properties": {
          "title": "Chaperon Rouge",
          "description": "[https://www.roceeh.uni-tuebingen.de/roadweb/tcpdf/localityInfoPDF/localityInfoPDF.php?locality=Chaperon%20Rouge Summary Data Sheet]"
        },
        "geometry": {
          "type": "Point",
          "coordinates": [-6.833, 33.917]
        }
      },
      {
        "type": "Feature",
        "properties": {
          "title": "Chez-Pinaud",
          "description": "[https://www.roceeh.uni-tuebingen.de/roadweb/tcpdf/localityInfoPDF/localityInfoPDF.php?locality=Chez-Pinaud Summary Data Sheet]"
        },
        "geometry": {
          "type": "Point",
          "coordinates": [-0.419, 45.438]
        }
      },
      {
        "type": "Feature",
        "properties": {
          "title": "Châtelperron - Grotte Effondrée",
          "description": "[https://www.roceeh.uni-tuebingen.de/roadweb/tcpdf/localityInfoPDF/localityInfoPDF.php?locality=Châtelperron%20-%20Grotte%20Effondrée Summary Data Sheet]"
        },
        "geometry": {
          "type": "Point",
          "coordinates": [3.639, 46.412]
        }
      },
      {
        "type": "Feature",
        "properties": {
          "title": "Ciemna Cave",
          "description": "[https://www.roceeh.uni-tuebingen.de/roadweb/tcpdf/localityInfoPDF/localityInfoPDF.php?locality=Ciemna%20Cave Summary Data Sheet]"
        },
        "geometry": {
          "type": "Point",
          "coordinates": [19.832, 50.197]
        }
      },
      {
        "type": "Feature",
        "properties": {
          "title": "Cioarei Cave",
          "description": "[https://www.roceeh.uni-tuebingen.de/roadweb/tcpdf/localityInfoPDF/localityInfoPDF.php?locality=Cioarei%20Cave Summary Data Sheet]"
        },
        "geometry": {
          "type": "Point",
          "coordinates": [23.048, 45.076]
        }
      },
      {
        "type": "Feature",
        "properties": {
          "title": "Ciota Ciara",
          "description": "[https://www.roceeh.uni-tuebingen.de/roadweb/tcpdf/localityInfoPDF/localityInfoPDF.php?locality=Ciota%20Ciara Summary Data Sheet]"
        },
        "geometry": {
          "type": "Point",
          "coordinates": [8.278, 45.708]
        }
      },
      {
        "type": "Feature",
        "properties": {
          "title": "Cobrinhos",
          "description": "[https://www.roceeh.uni-tuebingen.de/roadweb/tcpdf/localityInfoPDF/localityInfoPDF.php?locality=Cobrinhos Summary Data Sheet]"
        },
        "geometry": {
          "type": "Point",
          "coordinates": [-7.677, 39.67]
        }
      },
      {
        "type": "Feature",
        "properties": {
          "title": "Colmont-Ponderosa",
          "description": "[https://www.roceeh.uni-tuebingen.de/roadweb/tcpdf/localityInfoPDF/localityInfoPDF.php?locality=Colmont-Ponderosa Summary Data Sheet]"
        },
        "geometry": {
          "type": "Point",
          "coordinates": [5.545, 50.51]
        }
      },
      {
        "type": "Feature",
        "properties": {
          "title": "Combe Brune 2",
          "description": "[https://www.roceeh.uni-tuebingen.de/roadweb/tcpdf/localityInfoPDF/localityInfoPDF.php?locality=Combe%20Brune%202 Summary Data Sheet]"
        },
        "geometry": {
          "type": "Point",
          "coordinates": [0.555, 44.881]
        }
      },
      {
        "type": "Feature",
        "properties": {
          "title": "Combe Brune 3",
          "description": "[https://www.roceeh.uni-tuebingen.de/roadweb/tcpdf/localityInfoPDF/localityInfoPDF.php?locality=Combe%20Brune%203 Summary Data Sheet]"
        },
        "geometry": {
          "type": "Point",
          "coordinates": [0.554, 44.883]
        }
      },
      {
        "type": "Feature",
        "properties": {
          "title": "Combe-Capelle Bas",
          "description": "[https://www.roceeh.uni-tuebingen.de/roadweb/tcpdf/localityInfoPDF/localityInfoPDF.php?locality=Combe-Capelle%20Bas Summary Data Sheet]"
        },
        "geometry": {
          "type": "Point",
          "coordinates": [0.85, 44.753]
        }
      },
      {
        "type": "Feature",
        "properties": {
          "title": "Combe-Grenal",
          "description": "[https://www.roceeh.uni-tuebingen.de/roadweb/tcpdf/localityInfoPDF/localityInfoPDF.php?locality=Combe-Grenal Summary Data Sheet]"
        },
        "geometry": {
          "type": "Point",
          "coordinates": [1.226, 44.806]
        }
      },
      {
        "type": "Feature",
        "properties": {
          "title": "Conceição",
          "description": "[https://www.roceeh.uni-tuebingen.de/roadweb/tcpdf/localityInfoPDF/localityInfoPDF.php?locality=Conceição Summary Data Sheet]"
        },
        "geometry": {
          "type": "Point",
          "coordinates": [-8.987, 38.727]
        }
      },
      {
        "type": "Feature",
        "properties": {
          "title": "Cotencher",
          "description": "[https://www.roceeh.uni-tuebingen.de/roadweb/tcpdf/localityInfoPDF/localityInfoPDF.php?locality=Cotencher Summary Data Sheet]"
        },
        "geometry": {
          "type": "Point",
          "coordinates": [6.899, 46.96]
        }
      },
      {
        "type": "Feature",
        "properties": {
          "title": "Coudoulous I",
          "description": "[https://www.roceeh.uni-tuebingen.de/roadweb/tcpdf/localityInfoPDF/localityInfoPDF.php?locality=Coudoulous%20I Summary Data Sheet]"
        },
        "geometry": {
          "type": "Point",
          "coordinates": [1.664, 44.477]
        }
      },
      {
        "type": "Feature",
        "properties": {
          "title": "Cova Foradada (Calafell)",
          "description": "[https://www.roceeh.uni-tuebingen.de/roadweb/tcpdf/localityInfoPDF/localityInfoPDF.php?locality=Cova%20Foradada%20(Calafell) Summary Data Sheet]"
        },
        "geometry": {
          "type": "Point",
          "coordinates": [1.581, 41.205]
        }
      },
      {
        "type": "Feature",
        "properties": {
          "title": "Cova Negra",
          "description": "[https://www.roceeh.uni-tuebingen.de/roadweb/tcpdf/localityInfoPDF/localityInfoPDF.php?locality=Cova%20Negra Summary Data Sheet]"
        },
        "geometry": {
          "type": "Point",
          "coordinates": [-0.533, 38.982]
        }
      },
      {
        "type": "Feature",
        "properties": {
          "title": "Cova del Gegant",
          "description": "[https://www.roceeh.uni-tuebingen.de/roadweb/tcpdf/localityInfoPDF/localityInfoPDF.php?locality=Cova%20del%20Gegant Summary Data Sheet]"
        },
        "geometry": {
          "type": "Point",
          "coordinates": [1.774, 41.224]
        }
      },
      {
        "type": "Feature",
        "properties": {
          "title": "Covalejos",
          "description": "[https://www.roceeh.uni-tuebingen.de/roadweb/tcpdf/localityInfoPDF/localityInfoPDF.php?locality=Covalejos Summary Data Sheet]"
        },
        "geometry": {
          "type": "Point",
          "coordinates": [-3.933, 43.397]
        }
      },
      {
        "type": "Feature",
        "properties": {
          "title": "Covolo De Nadale",
          "description": "[https://www.roceeh.uni-tuebingen.de/roadweb/tcpdf/localityInfoPDF/localityInfoPDF.php?locality=Covolo%20De%20Nadale Summary Data Sheet]"
        },
        "geometry": {
          "type": "Point",
          "coordinates": [11.3, 45.26]
        }
      },
      {
        "type": "Feature",
        "properties": {
          "title": "Crvena Stijena",
          "description": "[https://www.roceeh.uni-tuebingen.de/roadweb/tcpdf/localityInfoPDF/localityInfoPDF.php?locality=Crvena%20Stijena Summary Data Sheet]"
        },
        "geometry": {
          "type": "Point",
          "coordinates": [18.481, 42.779]
        }
      },
      {
        "type": "Feature",
        "properties": {
          "title": "Cueva Antón",
          "description": "[https://www.roceeh.uni-tuebingen.de/roadweb/tcpdf/localityInfoPDF/localityInfoPDF.php?locality=Cueva%20Antón Summary Data Sheet]"
        },
        "geometry": {
          "type": "Point",
          "coordinates": [-1.496, 38.065]
        }
      },
      {
        "type": "Feature",
        "properties": {
          "title": "Cueva Bajondillo",
          "description": "[https://www.roceeh.uni-tuebingen.de/roadweb/tcpdf/localityInfoPDF/localityInfoPDF.php?locality=Cueva%20Bajondillo Summary Data Sheet]"
        },
        "geometry": {
          "type": "Point",
          "coordinates": [-4.498, 36.621]
        }
      },
      {
        "type": "Feature",
        "properties": {
          "title": "Cueva Des-Cubierta",
          "description": "[https://www.roceeh.uni-tuebingen.de/roadweb/tcpdf/localityInfoPDF/localityInfoPDF.php?locality=Cueva%20Des-Cubierta Summary Data Sheet]"
        },
        "geometry": {
          "type": "Point",
          "coordinates": [-3.808, 40.923]
        }
      },
      {
        "type": "Feature",
        "properties": {
          "title": "Cueva Morín",
          "description": "[https://www.roceeh.uni-tuebingen.de/roadweb/tcpdf/localityInfoPDF/localityInfoPDF.php?locality=Cueva%20Morín Summary Data Sheet]"
        },
        "geometry": {
          "type": "Point",
          "coordinates": [-3.858, 43.359]
        }
      },
      {
        "type": "Feature",
        "properties": {
          "title": "Cueva de Ardales",
          "description": "[https://www.roceeh.uni-tuebingen.de/roadweb/tcpdf/localityInfoPDF/localityInfoPDF.php?locality=Cueva%20de%20Ardales Summary Data Sheet]"
        },
        "geometry": {
          "type": "Point",
          "coordinates": [-4.829, 36.873]
        }
      },
      {
        "type": "Feature",
        "properties": {
          "title": "Cueva de El Pendo",
          "description": "[https://www.roceeh.uni-tuebingen.de/roadweb/tcpdf/localityInfoPDF/localityInfoPDF.php?locality=Cueva%20de%20El%20Pendo Summary Data Sheet]"
        },
        "geometry": {
          "type": "Point",
          "coordinates": [-3.912, 43.389]
        }
      },
      {
        "type": "Feature",
        "properties": {
          "title": "Cueva de Maltravieso - Sala de los Huesos",
          "description": "[https://www.roceeh.uni-tuebingen.de/roadweb/tcpdf/localityInfoPDF/localityInfoPDF.php?locality=Cueva%20de%20Maltravieso%20-%20Sala%20de%20los%20Huesos Summary Data Sheet]"
        },
        "geometry": {
          "type": "Point",
          "coordinates": [-6.371, 39.458]
        }
      },
      {
        "type": "Feature",
        "properties": {
          "title": "Cueva de Santa Ana",
          "description": "[https://www.roceeh.uni-tuebingen.de/roadweb/tcpdf/localityInfoPDF/localityInfoPDF.php?locality=Cueva%20de%20Santa%20Ana Summary Data Sheet]"
        },
        "geometry": {
          "type": "Point",
          "coordinates": [-6.369, 39.427]
        }
      },
      {
        "type": "Feature",
        "properties": {
          "title": "Cueva de la Buena Pinta",
          "description": "[https://www.roceeh.uni-tuebingen.de/roadweb/tcpdf/localityInfoPDF/localityInfoPDF.php?locality=Cueva%20de%20la%20Buena%20Pinta Summary Data Sheet]"
        },
        "geometry": {
          "type": "Point",
          "coordinates": [-3.808, 40.923]
        }
      },
      {
        "type": "Feature",
        "properties": {
          "title": "Cueva de los Aviones",
          "description": "[https://www.roceeh.uni-tuebingen.de/roadweb/tcpdf/localityInfoPDF/localityInfoPDF.php?locality=Cueva%20de%20los%20Aviones Summary Data Sheet]"
        },
        "geometry": {
          "type": "Point",
          "coordinates": [-0.986, 37.585]
        }
      },
      {
        "type": "Feature",
        "properties": {
          "title": "Cueva de los Postes",
          "description": "[https://www.roceeh.uni-tuebingen.de/roadweb/tcpdf/localityInfoPDF/localityInfoPDF.php?locality=Cueva%20de%20los%20Postes Summary Data Sheet]"
        },
        "geometry": {
          "type": "Point",
          "coordinates": [-6.497, 38.027]
        }
      },
      {
        "type": "Feature",
        "properties": {
          "title": "Cueva del Camino",
          "description": "[https://www.roceeh.uni-tuebingen.de/roadweb/tcpdf/localityInfoPDF/localityInfoPDF.php?locality=Cueva%20del%20Camino Summary Data Sheet]"
        },
        "geometry": {
          "type": "Point",
          "coordinates": [-3.81, 40.924]
        }
      },
      {
        "type": "Feature",
        "properties": {
          "title": "Dakhla Oasis Dyke Area E-72-4",
          "description": "[https://www.roceeh.uni-tuebingen.de/roadweb/tcpdf/localityInfoPDF/localityInfoPDF.php?locality=Dakhla%20Oasis%20Dyke%20Area%20E-72-4 Summary Data Sheet]"
        },
        "geometry": {
          "type": "Point",
          "coordinates": [29.167, 25.517]
        }
      },
      {
        "type": "Feature",
        "properties": {
          "title": "Dalani i Vogel",
          "description": "[https://www.roceeh.uni-tuebingen.de/roadweb/tcpdf/localityInfoPDF/localityInfoPDF.php?locality=Dalani%20i%20Vogel Summary Data Sheet]"
        },
        "geometry": {
          "type": "Point",
          "coordinates": [19.395, 40.514]
        }
      },
      {
        "type": "Feature",
        "properties": {
          "title": "Dar es Soltane 1",
          "description": "[https://www.roceeh.uni-tuebingen.de/roadweb/tcpdf/localityInfoPDF/localityInfoPDF.php?locality=Dar%20es%20Soltane%201 Summary Data Sheet]"
        },
        "geometry": {
          "type": "Point",
          "coordinates": [-6.898, 33.979]
        }
      },
      {
        "type": "Feature",
        "properties": {
          "title": "Dar es Soltane 2",
          "description": "[https://www.roceeh.uni-tuebingen.de/roadweb/tcpdf/localityInfoPDF/localityInfoPDF.php?locality=Dar%20es%20Soltane%202 Summary Data Sheet]"
        },
        "geometry": {
          "type": "Point",
          "coordinates": [-6.898, 33.979]
        }
      },
      {
        "type": "Feature",
        "properties": {
          "title": "Dark Cave",
          "description": "[https://www.roceeh.uni-tuebingen.de/roadweb/tcpdf/localityInfoPDF/localityInfoPDF.php?locality=Dark%20Cave Summary Data Sheet]"
        },
        "geometry": {
          "type": "Point",
          "coordinates": [45.327, 35.505]
        }
      },
      {
        "type": "Feature",
        "properties": {
          "title": "Dederiyeh cave",
          "description": "[https://www.roceeh.uni-tuebingen.de/roadweb/tcpdf/localityInfoPDF/localityInfoPDF.php?locality=Dederiyeh%20cave Summary Data Sheet]"
        },
        "geometry": {
          "type": "Point",
          "coordinates": [36.867, 36.4]
        }
      },
      {
        "type": "Feature",
        "properties": {
          "title": "Denisova Central chamber",
          "description": "[https://www.roceeh.uni-tuebingen.de/roadweb/tcpdf/localityInfoPDF/localityInfoPDF.php?locality=Denisova%20Central%20chamber Summary Data Sheet]"
        },
        "geometry": {
          "type": "Point",
          "coordinates": [84.677, 51.398]
        }
      },
      {
        "type": "Feature",
        "properties": {
          "title": "Derna East",
          "description": "[https://www.roceeh.uni-tuebingen.de/roadweb/tcpdf/localityInfoPDF/localityInfoPDF.php?locality=Derna%20East Summary Data Sheet]"
        },
        "geometry": {
          "type": "Point",
          "coordinates": [22.64, 32.76]
        }
      },
      {
        "type": "Feature",
        "properties": {
          "title": "Derna West",
          "description": "[https://www.roceeh.uni-tuebingen.de/roadweb/tcpdf/localityInfoPDF/localityInfoPDF.php?locality=Derna%20West Summary Data Sheet]"
        },
        "geometry": {
          "type": "Point",
          "coordinates": [22.64, 32.76]
        }
      },
      {
        "type": "Feature",
        "properties": {
          "title": "Dingcun 54100",
          "description": "[https://www.roceeh.uni-tuebingen.de/roadweb/tcpdf/localityInfoPDF/localityInfoPDF.php?locality=Dingcun%2054100 Summary Data Sheet]"
        },
        "geometry": {
          "type": "Point",
          "coordinates": [111.426, 35.829]
        }
      },
      {
        "type": "Feature",
        "properties": {
          "title": "Dingcun 7902",
          "description": "[https://www.roceeh.uni-tuebingen.de/roadweb/tcpdf/localityInfoPDF/localityInfoPDF.php?locality=Dingcun%207902 Summary Data Sheet]"
        },
        "geometry": {
          "type": "Point",
          "coordinates": [111.438, 35.857]
        }
      },
      {
        "type": "Feature",
        "properties": {
          "title": "Dingcun 8001",
          "description": "[https://www.roceeh.uni-tuebingen.de/roadweb/tcpdf/localityInfoPDF/localityInfoPDF.php?locality=Dingcun%208001 Summary Data Sheet]"
        },
        "geometry": {
          "type": "Point",
          "coordinates": [111.418, 35.841]
        }
      },
      {
        "type": "Feature",
        "properties": {
          "title": "Dingcun Complex",
          "description": "[https://www.roceeh.uni-tuebingen.de/roadweb/tcpdf/localityInfoPDF/localityInfoPDF.php?locality=Dingcun%20Complex Summary Data Sheet]"
        },
        "geometry": {
          "type": "Point",
          "coordinates": [111.417, 35.85]
        }
      },
      {
        "type": "Feature",
        "properties": {
          "title": "Divje babe I",
          "description": "[https://www.roceeh.uni-tuebingen.de/roadweb/tcpdf/localityInfoPDF/localityInfoPDF.php?locality=Divje%20babe%20I Summary Data Sheet]"
        },
        "geometry": {
          "type": "Point",
          "coordinates": [13.546, 46.064]
        }
      },
      {
        "type": "Feature",
        "properties": {
          "title": "Djruchula Cave",
          "description": "[https://www.roceeh.uni-tuebingen.de/roadweb/tcpdf/localityInfoPDF/localityInfoPDF.php?locality=Djruchula%20Cave Summary Data Sheet]"
        },
        "geometry": {
          "type": "Point",
          "coordinates": [43.346, 42.342]
        }
      },
      {
        "type": "Feature",
        "properties": {
          "title": "Dzerava skala cave",
          "description": "[https://www.roceeh.uni-tuebingen.de/roadweb/tcpdf/localityInfoPDF/localityInfoPDF.php?locality=Dzerava%20skala%20cave Summary Data Sheet]"
        },
        "geometry": {
          "type": "Point",
          "coordinates": [17.325, 48.497]
        }
      },
      {
        "type": "Feature",
        "properties": {
          "title": "Dziadowa Skala Cave",
          "description": "[https://www.roceeh.uni-tuebingen.de/roadweb/tcpdf/localityInfoPDF/localityInfoPDF.php?locality=Dziadowa%20Skala%20Cave Summary Data Sheet]"
        },
        "geometry": {
          "type": "Point",
          "coordinates": [19.533, 50.546]
        }
      },
      {
        "type": "Feature",
        "properties": {
          "title": "Dzierzyslaw I",
          "description": "[https://www.roceeh.uni-tuebingen.de/roadweb/tcpdf/localityInfoPDF/localityInfoPDF.php?locality=Dzierzyslaw%20I Summary Data Sheet]"
        },
        "geometry": {
          "type": "Point",
          "coordinates": [17.987, 50.042]
        }
      },
      {
        "type": "Feature",
        "properties": {
          "title": "EDAR Culebro 1",
          "description": "[https://www.roceeh.uni-tuebingen.de/roadweb/tcpdf/localityInfoPDF/localityInfoPDF.php?locality=EDAR%20Culebro%201 Summary Data Sheet]"
        },
        "geometry": {
          "type": "Point",
          "coordinates": [-3.6, 40.3]
        }
      },
      {
        "type": "Feature",
        "properties": {
          "title": "Ecalgrain",
          "description": "[https://www.roceeh.uni-tuebingen.de/roadweb/tcpdf/localityInfoPDF/localityInfoPDF.php?locality=Ecalgrain Summary Data Sheet]"
        },
        "geometry": {
          "type": "Point",
          "coordinates": [-1.936, 49.692]
        }
      },
      {
        "type": "Feature",
        "properties": {
          "title": "Ein Qashish",
          "description": "[https://www.roceeh.uni-tuebingen.de/roadweb/tcpdf/localityInfoPDF/localityInfoPDF.php?locality=Ein%20Qashish Summary Data Sheet]"
        },
        "geometry": {
          "type": "Point",
          "coordinates": [35.11, 32.685]
        }
      },
      {
        "type": "Feature",
        "properties": {
          "title": "Einhornhöhle",
          "description": "[https://www.roceeh.uni-tuebingen.de/roadweb/tcpdf/localityInfoPDF/localityInfoPDF.php?locality=Einhornhöhle Summary Data Sheet]"
        },
        "geometry": {
          "type": "Point",
          "coordinates": [10.404, 51.635]
        }
      },
      {
        "type": "Feature",
        "properties": {
          "title": "El Akarit",
          "description": "[https://www.roceeh.uni-tuebingen.de/roadweb/tcpdf/localityInfoPDF/localityInfoPDF.php?locality=El%20Akarit Summary Data Sheet]"
        },
        "geometry": {
          "type": "Point",
          "coordinates": [10.017, 34.117]
        }
      },
      {
        "type": "Feature",
        "properties": {
          "title": "El Baraghit",
          "description": "[https://www.roceeh.uni-tuebingen.de/roadweb/tcpdf/localityInfoPDF/localityInfoPDF.php?locality=El%20Baraghit Summary Data Sheet]"
        },
        "geometry": {
          "type": "Point",
          "coordinates": [32.017, 26.017]
        }
      },
      {
        "type": "Feature",
        "properties": {
          "title": "El Castillo",
          "description": "[https://www.roceeh.uni-tuebingen.de/roadweb/tcpdf/localityInfoPDF/localityInfoPDF.php?locality=El%20Castillo Summary Data Sheet]"
        },
        "geometry": {
          "type": "Point",
          "coordinates": [-3.966, 43.292]
        }
      },
      {
        "type": "Feature",
        "properties": {
          "title": "El Gawanim 1",
          "description": "[https://www.roceeh.uni-tuebingen.de/roadweb/tcpdf/localityInfoPDF/localityInfoPDF.php?locality=El%20Gawanim%201 Summary Data Sheet]"
        },
        "geometry": {
          "type": "Point",
          "coordinates": [31.583, 26.567]
        }
      },
      {
        "type": "Feature",
        "properties": {
          "title": "El Gawanim 2",
          "description": "[https://www.roceeh.uni-tuebingen.de/roadweb/tcpdf/localityInfoPDF/localityInfoPDF.php?locality=El%20Gawanim%202 Summary Data Sheet]"
        },
        "geometry": {
          "type": "Point",
          "coordinates": [31.583, 26.567]
        }
      },
      {
        "type": "Feature",
        "properties": {
          "title": "El Ghineimiya 1",
          "description": "[https://www.roceeh.uni-tuebingen.de/roadweb/tcpdf/localityInfoPDF/localityInfoPDF.php?locality=El%20Ghineimiya%201 Summary Data Sheet]"
        },
        "geometry": {
          "type": "Point",
          "coordinates": [31.975, 26.153]
        }
      },
      {
        "type": "Feature",
        "properties": {
          "title": "El Ghineimiya 2",
          "description": "[https://www.roceeh.uni-tuebingen.de/roadweb/tcpdf/localityInfoPDF/localityInfoPDF.php?locality=El%20Ghineimiya%202 Summary Data Sheet]"
        },
        "geometry": {
          "type": "Point",
          "coordinates": [31.975, 26.153]
        }
      },
      {
        "type": "Feature",
        "properties": {
          "title": "El Ghineimiya 3",
          "description": "[https://www.roceeh.uni-tuebingen.de/roadweb/tcpdf/localityInfoPDF/localityInfoPDF.php?locality=El%20Ghineimiya%203 Summary Data Sheet]"
        },
        "geometry": {
          "type": "Point",
          "coordinates": [31.975, 26.153]
        }
      },
      {
        "type": "Feature",
        "properties": {
          "title": "El Harhoura 1",
          "description": "[https://www.roceeh.uni-tuebingen.de/roadweb/tcpdf/localityInfoPDF/localityInfoPDF.php?locality=El%20Harhoura%201 Summary Data Sheet]"
        },
        "geometry": {
          "type": "Point",
          "coordinates": [-6.926, 33.953]
        }
      },
      {
        "type": "Feature",
        "properties": {
          "title": "El Harhoura 2",
          "description": "[https://www.roceeh.uni-tuebingen.de/roadweb/tcpdf/localityInfoPDF/localityInfoPDF.php?locality=El%20Harhoura%202 Summary Data Sheet]"
        },
        "geometry": {
          "type": "Point",
          "coordinates": [-6.926, 33.953]
        }
      },
      {
        "type": "Feature",
        "properties": {
          "title": "El Hondal",
          "description": "[https://www.roceeh.uni-tuebingen.de/roadweb/tcpdf/localityInfoPDF/localityInfoPDF.php?locality=El%20Hondal Summary Data Sheet]"
        },
        "geometry": {
          "type": "Point",
          "coordinates": [-4.019, 43.389]
        }
      },
      {
        "type": "Feature",
        "properties": {
          "title": "El Khenzira Grotte 1",
          "description": "[https://www.roceeh.uni-tuebingen.de/roadweb/tcpdf/localityInfoPDF/localityInfoPDF.php?locality=El%20Khenzira%20Grotte%201 Summary Data Sheet]"
        },
        "geometry": {
          "type": "Point",
          "coordinates": [-8.6, 33.167]
        }
      },
      {
        "type": "Feature",
        "properties": {
          "title": "El Khenzira Grotte 2",
          "description": "[https://www.roceeh.uni-tuebingen.de/roadweb/tcpdf/localityInfoPDF/localityInfoPDF.php?locality=El%20Khenzira%20Grotte%202 Summary Data Sheet]"
        },
        "geometry": {
          "type": "Point",
          "coordinates": [-8.6, 33.167]
        }
      },
      {
        "type": "Feature",
        "properties": {
          "title": "El Mnasra",
          "description": "[https://www.roceeh.uni-tuebingen.de/roadweb/tcpdf/localityInfoPDF/localityInfoPDF.php?locality=El%20Mnasra Summary Data Sheet]"
        },
        "geometry": {
          "type": "Point",
          "coordinates": [-6.954, 33.928]
        }
      },
      {
        "type": "Feature",
        "properties": {
          "title": "El Palomar",
          "description": "[https://www.roceeh.uni-tuebingen.de/roadweb/tcpdf/localityInfoPDF/localityInfoPDF.php?locality=El%20Palomar Summary Data Sheet]"
        },
        "geometry": {
          "type": "Point",
          "coordinates": [-2.246, 38.395]
        }
      },
      {
        "type": "Feature",
        "properties": {
          "title": "El Salt",
          "description": "[https://www.roceeh.uni-tuebingen.de/roadweb/tcpdf/localityInfoPDF/localityInfoPDF.php?locality=El%20Salt Summary Data Sheet]"
        },
        "geometry": {
          "type": "Point",
          "coordinates": [-0.383, 39.655]
        }
      },
      {
        "type": "Feature",
        "properties": {
          "title": "El Sidrón",
          "description": "[https://www.roceeh.uni-tuebingen.de/roadweb/tcpdf/localityInfoPDF/localityInfoPDF.php?locality=El%20Sidrón Summary Data Sheet]"
        },
        "geometry": {
          "type": "Point",
          "coordinates": [-5.329, 43.384]
        }
      },
      {
        "type": "Feature",
        "properties": {
          "title": "Emanuel cave",
          "description": "[https://www.roceeh.uni-tuebingen.de/roadweb/tcpdf/localityInfoPDF/localityInfoPDF.php?locality=Emanuel%20cave Summary Data Sheet]"
        },
        "geometry": {
          "type": "Point",
          "coordinates": [35.126, 32.161]
        }
      },
      {
        "type": "Feature",
        "properties": {
          "title": "En Roche",
          "description": "[https://www.roceeh.uni-tuebingen.de/roadweb/tcpdf/localityInfoPDF/localityInfoPDF.php?locality=En%20Roche Summary Data Sheet]"
        },
        "geometry": {
          "type": "Point",
          "coordinates": [4.754, 46.813]
        }
      },
      {
        "type": "Feature",
        "properties": {
          "title": "Erd",
          "description": "[https://www.roceeh.uni-tuebingen.de/roadweb/tcpdf/localityInfoPDF/localityInfoPDF.php?locality=Erd Summary Data Sheet]"
        },
        "geometry": {
          "type": "Point",
          "coordinates": [18.873, 47.399]
        }
      },
      {
        "type": "Feature",
        "properties": {
          "title": "Eshkaft-e Gavi",
          "description": "[https://www.roceeh.uni-tuebingen.de/roadweb/tcpdf/localityInfoPDF/localityInfoPDF.php?locality=Eshkaft-e%20Gavi Summary Data Sheet]"
        },
        "geometry": {
          "type": "Point",
          "coordinates": [52.748, 29.872]
        }
      },
      {
        "type": "Feature",
        "properties": {
          "title": "Esquicho-Grapaou",
          "description": "[https://www.roceeh.uni-tuebingen.de/roadweb/tcpdf/localityInfoPDF/localityInfoPDF.php?locality=Esquicho-Grapaou Summary Data Sheet]"
        },
        "geometry": {
          "type": "Point",
          "coordinates": [4.333, 43.924]
        }
      },
      {
        "type": "Feature",
        "properties": {
          "title": "Ex-Casino",
          "description": "[https://www.roceeh.uni-tuebingen.de/roadweb/tcpdf/localityInfoPDF/localityInfoPDF.php?locality=Ex-Casino Summary Data Sheet]"
        },
        "geometry": {
          "type": "Point",
          "coordinates": [7.533, 43.784]
        }
      },
      {
        "type": "Feature",
        "properties": {
          "title": "Ezbet Rabab",
          "description": "[https://www.roceeh.uni-tuebingen.de/roadweb/tcpdf/localityInfoPDF/localityInfoPDF.php?locality=Ezbet%20Rabab Summary Data Sheet]"
        },
        "geometry": {
          "type": "Point",
          "coordinates": [31.767, 26.633]
        }
      },
      {
        "type": "Feature",
        "properties": {
          "title": "Farah II",
          "description": "[https://www.roceeh.uni-tuebingen.de/roadweb/tcpdf/localityInfoPDF/localityInfoPDF.php?locality=Farah%20II Summary Data Sheet]"
        },
        "geometry": {
          "type": "Point",
          "coordinates": [34.489, 31.284]
        }
      },
      {
        "type": "Feature",
        "properties": {
          "title": "Feldhofer Grotte",
          "description": "[https://www.roceeh.uni-tuebingen.de/roadweb/tcpdf/localityInfoPDF/localityInfoPDF.php?locality=Feldhofer%20Grotte Summary Data Sheet]"
        },
        "geometry": {
          "type": "Point",
          "coordinates": [6.946, 51.227]
        }
      },
      {
        "type": "Feature",
        "properties": {
          "title": "Fontenioux",
          "description": "[https://www.roceeh.uni-tuebingen.de/roadweb/tcpdf/localityInfoPDF/localityInfoPDF.php?locality=Fontenioux Summary Data Sheet]"
        },
        "geometry": {
          "type": "Point",
          "coordinates": [0.846, 46.698]
        }
      },
      {
        "type": "Feature",
        "properties": {
          "title": "Fontéchevade",
          "description": "[https://www.roceeh.uni-tuebingen.de/roadweb/tcpdf/localityInfoPDF/localityInfoPDF.php?locality=Fontéchevade Summary Data Sheet]"
        },
        "geometry": {
          "type": "Point",
          "coordinates": [0.48, 45.679]
        }
      },
      {
        "type": "Feature",
        "properties": {
          "title": "Fossellone",
          "description": "[https://www.roceeh.uni-tuebingen.de/roadweb/tcpdf/localityInfoPDF/localityInfoPDF.php?locality=Fossellone Summary Data Sheet]"
        },
        "geometry": {
          "type": "Point",
          "coordinates": [13.08, 41.223]
        }
      },
      {
        "type": "Feature",
        "properties": {
          "title": "Fumane",
          "description": "[https://www.roceeh.uni-tuebingen.de/roadweb/tcpdf/localityInfoPDF/localityInfoPDF.php?locality=Fumane Summary Data Sheet]"
        },
        "geometry": {
          "type": "Point",
          "coordinates": [10.905, 45.592]
        }
      },
      {
        "type": "Feature",
        "properties": {
          "title": "Galería",
          "description": "[https://www.roceeh.uni-tuebingen.de/roadweb/tcpdf/localityInfoPDF/localityInfoPDF.php?locality=Galería Summary Data Sheet]"
        },
        "geometry": {
          "type": "Point",
          "coordinates": [-3.52, 42.351]
        }
      },
      {
        "type": "Feature",
        "properties": {
          "title": "Ganovce",
          "description": "[https://www.roceeh.uni-tuebingen.de/roadweb/tcpdf/localityInfoPDF/localityInfoPDF.php?locality=Ganovce Summary Data Sheet]"
        },
        "geometry": {
          "type": "Point",
          "coordinates": [20.327, 49.03]
        }
      },
      {
        "type": "Feature",
        "properties": {
          "title": "Gatzarria",
          "description": "[https://www.roceeh.uni-tuebingen.de/roadweb/tcpdf/localityInfoPDF/localityInfoPDF.php?locality=Gatzarria Summary Data Sheet]"
        },
        "geometry": {
          "type": "Point",
          "coordinates": [-0.92, 43.135]
        }
      },
      {
        "type": "Feature",
        "properties": {
          "title": "Geißenklösterle",
          "description": "[https://www.roceeh.uni-tuebingen.de/roadweb/tcpdf/localityInfoPDF/localityInfoPDF.php?locality=Geißenklösterle Summary Data Sheet]"
        },
        "geometry": {
          "type": "Point",
          "coordinates": [9.771, 48.398]
        }
      },
      {
        "type": "Feature",
        "properties": {
          "title": "Genay - Brèche",
          "description": "[https://www.roceeh.uni-tuebingen.de/roadweb/tcpdf/localityInfoPDF/localityInfoPDF.php?locality=Genay%20-%20Brèche Summary Data Sheet]"
        },
        "geometry": {
          "type": "Point",
          "coordinates": [4.319, 47.535]
        }
      },
      {
        "type": "Feature",
        "properties": {
          "title": "Germolles - Grotte de la Verpillière II",
          "description": "[https://www.roceeh.uni-tuebingen.de/roadweb/tcpdf/localityInfoPDF/localityInfoPDF.php?locality=Germolles%20-%20Grotte%20de%20la%20Verpillière%20II Summary Data Sheet]"
        },
        "geometry": {
          "type": "Point",
          "coordinates": [4.742, 46.809]
        }
      },
      {
        "type": "Feature",
        "properties": {
          "title": "Geula Cave",
          "description": "[https://www.roceeh.uni-tuebingen.de/roadweb/tcpdf/localityInfoPDF/localityInfoPDF.php?locality=Geula%20Cave Summary Data Sheet]"
        },
        "geometry": {
          "type": "Point",
          "coordinates": [35.001, 32.795]
        }
      },
      {
        "type": "Feature",
        "properties": {
          "title": "Ghiardo",
          "description": "[https://www.roceeh.uni-tuebingen.de/roadweb/tcpdf/localityInfoPDF/localityInfoPDF.php?locality=Ghiardo Summary Data Sheet]"
        },
        "geometry": {
          "type": "Point",
          "coordinates": [10.503, 44.67]
        }
      },
      {
        "type": "Feature",
        "properties": {
          "title": "Giganti",
          "description": "[https://www.roceeh.uni-tuebingen.de/roadweb/tcpdf/localityInfoPDF/localityInfoPDF.php?locality=Giganti Summary Data Sheet]"
        },
        "geometry": {
          "type": "Point",
          "coordinates": [18.2, 39.9]
        }
      },
      {
        "type": "Feature",
        "properties": {
          "title": "Givat Rabi East",
          "description": "[https://www.roceeh.uni-tuebingen.de/roadweb/tcpdf/localityInfoPDF/localityInfoPDF.php?locality=Givat%20Rabi%20East Summary Data Sheet]"
        },
        "geometry": {
          "type": "Point",
          "coordinates": [35.283, 32.726]
        }
      },
      {
        "type": "Feature",
        "properties": {
          "title": "Goaréva",
          "description": "[https://www.roceeh.uni-tuebingen.de/roadweb/tcpdf/localityInfoPDF/localityInfoPDF.php?locality=Goaréva Summary Data Sheet]"
        },
        "geometry": {
          "type": "Point",
          "coordinates": [-3.012, 48.838]
        }
      },
      {
        "type": "Feature",
        "properties": {
          "title": "Gorhams Cave",
          "description": "[https://www.roceeh.uni-tuebingen.de/roadweb/tcpdf/localityInfoPDF/localityInfoPDF.php?locality=Gorhams%20Cave Summary Data Sheet]"
        },
        "geometry": {
          "type": "Point",
          "coordinates": [-5.342, 36.12]
        }
      },
      {
        "type": "Feature",
        "properties": {
          "title": "Goyet",
          "description": "[https://www.roceeh.uni-tuebingen.de/roadweb/tcpdf/localityInfoPDF/localityInfoPDF.php?locality=Goyet Summary Data Sheet]"
        },
        "geometry": {
          "type": "Point",
          "coordinates": [5.013, 50.445]
        }
      },
      {
        "type": "Feature",
        "properties": {
          "title": "Grabschütz",
          "description": "[https://www.roceeh.uni-tuebingen.de/roadweb/tcpdf/localityInfoPDF/localityInfoPDF.php?locality=Grabschütz Summary Data Sheet]"
        },
        "geometry": {
          "type": "Point",
          "coordinates": [12.282, 51.481]
        }
      },
      {
        "type": "Feature",
        "properties": {
          "title": "Gran Dolina",
          "description": "[https://www.roceeh.uni-tuebingen.de/roadweb/tcpdf/localityInfoPDF/localityInfoPDF.php?locality=Gran%20Dolina Summary Data Sheet]"
        },
        "geometry": {
          "type": "Point",
          "coordinates": [-3.52, 42.351]
        }
      },
      {
        "type": "Feature",
        "properties": {
          "title": "Grand Abri aux Puces",
          "description": "[https://www.roceeh.uni-tuebingen.de/roadweb/tcpdf/localityInfoPDF/localityInfoPDF.php?locality=Grand%20Abri%20aux%20Puces Summary Data Sheet]"
        },
        "geometry": {
          "type": "Point",
          "coordinates": [5.13, 44.22]
        }
      },
      {
        "type": "Feature",
        "properties": {
          "title": "Gron - Fond des Blanchards",
          "description": "[https://www.roceeh.uni-tuebingen.de/roadweb/tcpdf/localityInfoPDF/localityInfoPDF.php?locality=Gron%20-%20Fond%20des%20Blanchards Summary Data Sheet]"
        },
        "geometry": {
          "type": "Point",
          "coordinates": [3.282, 48.151]
        }
      },
      {
        "type": "Feature",
        "properties": {
          "title": "Grotta Grande of Scario",
          "description": "[https://www.roceeh.uni-tuebingen.de/roadweb/tcpdf/localityInfoPDF/localityInfoPDF.php?locality=Grotta%20Grande%20of%20Scario Summary Data Sheet]"
        },
        "geometry": {
          "type": "Point",
          "coordinates": [15.35, 40.022]
        }
      },
      {
        "type": "Feature",
        "properties": {
          "title": "Grotta Maggiore di San Bernardino",
          "description": "[https://www.roceeh.uni-tuebingen.de/roadweb/tcpdf/localityInfoPDF/localityInfoPDF.php?locality=Grotta%20Maggiore%20di%20San%20Bernardino Summary Data Sheet]"
        },
        "geometry": {
          "type": "Point",
          "coordinates": [11.554, 45.423]
        }
      },
      {
        "type": "Feature",
        "properties": {
          "title": "Grotta Reali",
          "description": "[https://www.roceeh.uni-tuebingen.de/roadweb/tcpdf/localityInfoPDF/localityInfoPDF.php?locality=Grotta%20Reali Summary Data Sheet]"
        },
        "geometry": {
          "type": "Point",
          "coordinates": [14.04, 41.632]
        }
      },
      {
        "type": "Feature",
        "properties": {
          "title": "Grotta dei Santi",
          "description": "[https://www.roceeh.uni-tuebingen.de/roadweb/tcpdf/localityInfoPDF/localityInfoPDF.php?locality=Grotta%20dei%20Santi Summary Data Sheet]"
        },
        "geometry": {
          "type": "Point",
          "coordinates": [11.18, 42.36]
        }
      },
      {
        "type": "Feature",
        "properties": {
          "title": "Grotta del Cavallo",
          "description": "[https://www.roceeh.uni-tuebingen.de/roadweb/tcpdf/localityInfoPDF/localityInfoPDF.php?locality=Grotta%20del%20Cavallo Summary Data Sheet]"
        },
        "geometry": {
          "type": "Point",
          "coordinates": [17.961, 40.155]
        }
      },
      {
        "type": "Feature",
        "properties": {
          "title": "Grotta del Poggio",
          "description": "[https://www.roceeh.uni-tuebingen.de/roadweb/tcpdf/localityInfoPDF/localityInfoPDF.php?locality=Grotta%20del%20Poggio Summary Data Sheet]"
        },
        "geometry": {
          "type": "Point",
          "coordinates": [15.382, 40.001]
        }
      },
      {
        "type": "Feature",
        "properties": {
          "title": "Grotta di Santo Agostino",
          "description": "[https://www.roceeh.uni-tuebingen.de/roadweb/tcpdf/localityInfoPDF/localityInfoPDF.php?locality=Grotta%20di%20Santo%20Agostino Summary Data Sheet]"
        },
        "geometry": {
          "type": "Point",
          "coordinates": [13.494, 41.234]
        }
      },
      {
        "type": "Feature",
        "properties": {
          "title": "Grotte Boccard",
          "description": "[https://www.roceeh.uni-tuebingen.de/roadweb/tcpdf/localityInfoPDF/localityInfoPDF.php?locality=Grotte%20Boccard Summary Data Sheet]"
        },
        "geometry": {
          "type": "Point",
          "coordinates": [4.587, 47.255]
        }
      },
      {
        "type": "Feature",
        "properties": {
          "title": "Grotte Mandrin",
          "description": "[https://www.roceeh.uni-tuebingen.de/roadweb/tcpdf/localityInfoPDF/localityInfoPDF.php?locality=Grotte%20Mandrin Summary Data Sheet]"
        },
        "geometry": {
          "type": "Point",
          "coordinates": [4.771, 44.47]
        }
      },
      {
        "type": "Feature",
        "properties": {
          "title": "Grotte Margot",
          "description": "[https://www.roceeh.uni-tuebingen.de/roadweb/tcpdf/localityInfoPDF/localityInfoPDF.php?locality=Grotte%20Margot Summary Data Sheet]"
        },
        "geometry": {
          "type": "Point",
          "coordinates": [-0.401, 47.993]
        }
      },
      {
        "type": "Feature",
        "properties": {
          "title": "Grotte Rainaude 1",
          "description": "[https://www.roceeh.uni-tuebingen.de/roadweb/tcpdf/localityInfoPDF/localityInfoPDF.php?locality=Grotte%20Rainaude%201 Summary Data Sheet]"
        },
        "geometry": {
          "type": "Point",
          "coordinates": [6.595, 43.53]
        }
      },
      {
        "type": "Feature",
        "properties": {
          "title": "Grotte Tournal",
          "description": "[https://www.roceeh.uni-tuebingen.de/roadweb/tcpdf/localityInfoPDF/localityInfoPDF.php?locality=Grotte%20Tournal Summary Data Sheet]"
        },
        "geometry": {
          "type": "Point",
          "coordinates": [2.878, 43.336]
        }
      },
      {
        "type": "Feature",
        "properties": {
          "title": "Grotte Vaufrey",
          "description": "[https://www.roceeh.uni-tuebingen.de/roadweb/tcpdf/localityInfoPDF/localityInfoPDF.php?locality=Grotte%20Vaufrey Summary Data Sheet]"
        },
        "geometry": {
          "type": "Point",
          "coordinates": [1.159, 44.813]
        }
      },
      {
        "type": "Feature",
        "properties": {
          "title": "Grotte XVI",
          "description": "[https://www.roceeh.uni-tuebingen.de/roadweb/tcpdf/localityInfoPDF/localityInfoPDF.php?locality=Grotte%20XVI Summary Data Sheet]"
        },
        "geometry": {
          "type": "Point",
          "coordinates": [1.159, 44.809]
        }
      },
      {
        "type": "Feature",
        "properties": {
          "title": "Grotte de Gargas",
          "description": "[https://www.roceeh.uni-tuebingen.de/roadweb/tcpdf/localityInfoPDF/localityInfoPDF.php?locality=Grotte%20de%20Gargas Summary Data Sheet]"
        },
        "geometry": {
          "type": "Point",
          "coordinates": [0.536, 43.055]
        }
      },
      {
        "type": "Feature",
        "properties": {
          "title": "Grotte de Néron",
          "description": "[https://www.roceeh.uni-tuebingen.de/roadweb/tcpdf/localityInfoPDF/localityInfoPDF.php?locality=Grotte%20de%20Néron Summary Data Sheet]"
        },
        "geometry": {
          "type": "Point",
          "coordinates": [4.848, 44.883]
        }
      },
      {
        "type": "Feature",
        "properties": {
          "title": "Grotte de Saint-Marcel",
          "description": "[https://www.roceeh.uni-tuebingen.de/roadweb/tcpdf/localityInfoPDF/localityInfoPDF.php?locality=Grotte%20de%20Saint-Marcel Summary Data Sheet]"
        },
        "geometry": {
          "type": "Point",
          "coordinates": [4.544, 44.324]
        }
      },
      {
        "type": "Feature",
        "properties": {
          "title": "Grotte de l_Ermitage",
          "description": "[https://www.roceeh.uni-tuebingen.de/roadweb/tcpdf/localityInfoPDF/localityInfoPDF.php?locality=Grotte%20de%20l_Ermitage Summary Data Sheet]"
        },
        "geometry": {
          "type": "Point",
          "coordinates": [0.734, 46.404]
        }
      },
      {
        "type": "Feature",
        "properties": {
          "title": "Grotte de la Chèvre",
          "description": "[https://www.roceeh.uni-tuebingen.de/roadweb/tcpdf/localityInfoPDF/localityInfoPDF.php?locality=Grotte%20de%20la%20Chèvre Summary Data Sheet]"
        },
        "geometry": {
          "type": "Point",
          "coordinates": [-0.403, 47.994]
        }
      },
      {
        "type": "Feature",
        "properties": {
          "title": "Grotte de la Chênelaz",
          "description": "[https://www.roceeh.uni-tuebingen.de/roadweb/tcpdf/localityInfoPDF/localityInfoPDF.php?locality=Grotte%20de%20la%20Chênelaz Summary Data Sheet]"
        },
        "geometry": {
          "type": "Point",
          "coordinates": [5.536, 45.909]
        }
      },
      {
        "type": "Feature",
        "properties": {
          "title": "Grotte de la Crouzade",
          "description": "[https://www.roceeh.uni-tuebingen.de/roadweb/tcpdf/localityInfoPDF/localityInfoPDF.php?locality=Grotte%20de%20la%20Crouzade Summary Data Sheet]"
        },
        "geometry": {
          "type": "Point",
          "coordinates": [3.09, 43.131]
        }
      },
      {
        "type": "Feature",
        "properties": {
          "title": "Grotte de la Mère Grand - Rully",
          "description": "[https://www.roceeh.uni-tuebingen.de/roadweb/tcpdf/localityInfoPDF/localityInfoPDF.php?locality=Grotte%20de%20la%20Mère%20Grand%20-%20Rully Summary Data Sheet]"
        },
        "geometry": {
          "type": "Point",
          "coordinates": [4.725, 46.871]
        }
      },
      {
        "type": "Feature",
        "properties": {
          "title": "Grotte des Cedres",
          "description": "[https://www.roceeh.uni-tuebingen.de/roadweb/tcpdf/localityInfoPDF/localityInfoPDF.php?locality=Grotte%20des%20Cedres Summary Data Sheet]"
        },
        "geometry": {
          "type": "Point",
          "coordinates": [5.734, 43.32]
        }
      },
      {
        "type": "Feature",
        "properties": {
          "title": "Grotte des Contrebandiers",
          "description": "[https://www.roceeh.uni-tuebingen.de/roadweb/tcpdf/localityInfoPDF/localityInfoPDF.php?locality=Grotte%20des%20Contrebandiers Summary Data Sheet]"
        },
        "geometry": {
          "type": "Point",
          "coordinates": [-6.962, 33.922]
        }
      },
      {
        "type": "Feature",
        "properties": {
          "title": "Grotte des Fees",
          "description": "[https://www.roceeh.uni-tuebingen.de/roadweb/tcpdf/localityInfoPDF/localityInfoPDF.php?locality=Grotte%20des%20Fees Summary Data Sheet]"
        },
        "geometry": {
          "type": "Point",
          "coordinates": [3.638, 46.412]
        }
      },
      {
        "type": "Feature",
        "properties": {
          "title": "Grotte des Pigeons",
          "description": "[https://www.roceeh.uni-tuebingen.de/roadweb/tcpdf/localityInfoPDF/localityInfoPDF.php?locality=Grotte%20des%20Pigeons Summary Data Sheet]"
        },
        "geometry": {
          "type": "Point",
          "coordinates": [-2.404, 34.814]
        }
      },
      {
        "type": "Feature",
        "properties": {
          "title": "Grotte des Ramandils",
          "description": "[https://www.roceeh.uni-tuebingen.de/roadweb/tcpdf/localityInfoPDF/localityInfoPDF.php?locality=Grotte%20des%20Ramandils Summary Data Sheet]"
        },
        "geometry": {
          "type": "Point",
          "coordinates": [3.038, 42.998]
        }
      },
      {
        "type": "Feature",
        "properties": {
          "title": "Grotte du Figuier",
          "description": "[https://www.roceeh.uni-tuebingen.de/roadweb/tcpdf/localityInfoPDF/localityInfoPDF.php?locality=Grotte%20du%20Figuier Summary Data Sheet]"
        },
        "geometry": {
          "type": "Point",
          "coordinates": [4.547, 44.32]
        }
      },
      {
        "type": "Feature",
        "properties": {
          "title": "Grotte du Loup",
          "description": "[https://www.roceeh.uni-tuebingen.de/roadweb/tcpdf/localityInfoPDF/localityInfoPDF.php?locality=Grotte%20du%20Loup Summary Data Sheet]"
        },
        "geometry": {
          "type": "Point",
          "coordinates": [1.557, 45.13]
        }
      },
      {
        "type": "Feature",
        "properties": {
          "title": "Grotte du Noisetier",
          "description": "[https://www.roceeh.uni-tuebingen.de/roadweb/tcpdf/localityInfoPDF/localityInfoPDF.php?locality=Grotte%20du%20Noisetier Summary Data Sheet]"
        },
        "geometry": {
          "type": "Point",
          "coordinates": [0.371, 42.928]
        }
      },
      {
        "type": "Feature",
        "properties": {
          "title": "Große Grotte",
          "description": "[https://www.roceeh.uni-tuebingen.de/roadweb/tcpdf/localityInfoPDF/localityInfoPDF.php?locality=Große%20Grotte Summary Data Sheet]"
        },
        "geometry": {
          "type": "Point",
          "coordinates": [9.801, 48.405]
        }
      },
      {
        "type": "Feature",
        "properties": {
          "title": "Großes Schulerloch",
          "description": "[https://www.roceeh.uni-tuebingen.de/roadweb/tcpdf/localityInfoPDF/localityInfoPDF.php?locality=Großes%20Schulerloch Summary Data Sheet]"
        },
        "geometry": {
          "type": "Point",
          "coordinates": [11.817, 48.928]
        }
      },
      {
        "type": "Feature",
        "properties": {
          "title": "Gruta Nova da Columbeira",
          "description": "[https://www.roceeh.uni-tuebingen.de/roadweb/tcpdf/localityInfoPDF/localityInfoPDF.php?locality=Gruta%20Nova%20da%20Columbeira Summary Data Sheet]"
        },
        "geometry": {
          "type": "Point",
          "coordinates": [-9.201, 39.298]
        }
      },
      {
        "type": "Feature",
        "properties": {
          "title": "Gruta da Figueira Brava",
          "description": "[https://www.roceeh.uni-tuebingen.de/roadweb/tcpdf/localityInfoPDF/localityInfoPDF.php?locality=Gruta%20da%20Figueira%20Brava Summary Data Sheet]"
        },
        "geometry": {
          "type": "Point",
          "coordinates": [-8.986, 38.471]
        }
      },
      {
        "type": "Feature",
        "properties": {
          "title": "Gruta da Furninha",
          "description": "[https://www.roceeh.uni-tuebingen.de/roadweb/tcpdf/localityInfoPDF/localityInfoPDF.php?locality=Gruta%20da%20Furninha Summary Data Sheet]"
        },
        "geometry": {
          "type": "Point",
          "coordinates": [-9.401, 39.356]
        }
      },
      {
        "type": "Feature",
        "properties": {
          "title": "Gruta da Oliveira",
          "description": "[https://www.roceeh.uni-tuebingen.de/roadweb/tcpdf/localityInfoPDF/localityInfoPDF.php?locality=Gruta%20da%20Oliveira Summary Data Sheet]"
        },
        "geometry": {
          "type": "Point",
          "coordinates": [-8.615, 39.505]
        }
      },
      {
        "type": "Feature",
        "properties": {
          "title": "Gruta das Salemas",
          "description": "[https://www.roceeh.uni-tuebingen.de/roadweb/tcpdf/localityInfoPDF/localityInfoPDF.php?locality=Gruta%20das%20Salemas Summary Data Sheet]"
        },
        "geometry": {
          "type": "Point",
          "coordinates": [-9.203, 38.876]
        }
      },
      {
        "type": "Feature",
        "properties": {
          "title": "Gruta do Caldeirão",
          "description": "[https://www.roceeh.uni-tuebingen.de/roadweb/tcpdf/localityInfoPDF/localityInfoPDF.php?locality=Gruta%20do%20Caldeirão Summary Data Sheet]"
        },
        "geometry": {
          "type": "Point",
          "coordinates": [-8.416, 39.647]
        }
      },
      {
        "type": "Feature",
        "properties": {
          "title": "Gröbern",
          "description": "[https://www.roceeh.uni-tuebingen.de/roadweb/tcpdf/localityInfoPDF/localityInfoPDF.php?locality=Gröbern Summary Data Sheet]"
        },
        "geometry": {
          "type": "Point",
          "coordinates": [12.449, 51.703]
        }
      },
      {
        "type": "Feature",
        "properties": {
          "title": "Guattari",
          "description": "[https://www.roceeh.uni-tuebingen.de/roadweb/tcpdf/localityInfoPDF/localityInfoPDF.php?locality=Guattari Summary Data Sheet]"
        },
        "geometry": {
          "type": "Point",
          "coordinates": [13.096, 41.232]
        }
      },
      {
        "type": "Feature",
        "properties": {
          "title": "Gudenushöhle",
          "description": "[https://www.roceeh.uni-tuebingen.de/roadweb/tcpdf/localityInfoPDF/localityInfoPDF.php?locality=Gudenushöhle Summary Data Sheet]"
        },
        "geometry": {
          "type": "Point",
          "coordinates": [15.396, 48.447]
        }
      },
      {
        "type": "Feature",
        "properties": {
          "title": "Göpfelsteinhöhle",
          "description": "[https://www.roceeh.uni-tuebingen.de/roadweb/tcpdf/localityInfoPDF/localityInfoPDF.php?locality=Göpfelsteinhöhle Summary Data Sheet]"
        },
        "geometry": {
          "type": "Point",
          "coordinates": [9.21, 48.18]
        }
      },
      {
        "type": "Feature",
        "properties": {
          "title": "Hadzi Prodanova",
          "description": "[https://www.roceeh.uni-tuebingen.de/roadweb/tcpdf/localityInfoPDF/localityInfoPDF.php?locality=Hadzi%20Prodanova Summary Data Sheet]"
        },
        "geometry": {
          "type": "Point",
          "coordinates": [20.21, 43.62]
        }
      },
      {
        "type": "Feature",
        "properties": {
          "title": "Hagfet et Tera",
          "description": "[https://www.roceeh.uni-tuebingen.de/roadweb/tcpdf/localityInfoPDF/localityInfoPDF.php?locality=Hagfet%20et%20Tera Summary Data Sheet]"
        },
        "geometry": {
          "type": "Point",
          "coordinates": [20.5, 32.1]
        }
      },
      {
        "type": "Feature",
        "properties": {
          "title": "Hahwagye-ri site",
          "description": "[https://www.roceeh.uni-tuebingen.de/roadweb/tcpdf/localityInfoPDF/localityInfoPDF.php?locality=Hahwagye-ri%20site Summary Data Sheet]"
        },
        "geometry": {
          "type": "Point",
          "coordinates": [127.854, 37.688]
        }
      },
      {
        "type": "Feature",
        "properties": {
          "title": "Haldensteinhöhle",
          "description": "[https://www.roceeh.uni-tuebingen.de/roadweb/tcpdf/localityInfoPDF/localityInfoPDF.php?locality=Haldensteinhöhle Summary Data Sheet]"
        },
        "geometry": {
          "type": "Point",
          "coordinates": [9.892, 48.548]
        }
      },
      {
        "type": "Feature",
        "properties": {
          "title": "Hallera Av. site",
          "description": "[https://www.roceeh.uni-tuebingen.de/roadweb/tcpdf/localityInfoPDF/localityInfoPDF.php?locality=Hallera%20Av.%20site Summary Data Sheet]"
        },
        "geometry": {
          "type": "Point",
          "coordinates": [16.995, 51.09]
        }
      },
      {
        "type": "Feature",
        "properties": {
          "title": "Hanumanthunipadu",
          "description": "[https://www.roceeh.uni-tuebingen.de/roadweb/tcpdf/localityInfoPDF/localityInfoPDF.php?locality=Hanumanthunipadu Summary Data Sheet]"
        },
        "geometry": {
          "type": "Point",
          "coordinates": [79.392, 15.466]
        }
      },
      {
        "type": "Feature",
        "properties": {
          "title": "Hassi Bellal",
          "description": "[https://www.roceeh.uni-tuebingen.de/roadweb/tcpdf/localityInfoPDF/localityInfoPDF.php?locality=Hassi%20Bellal Summary Data Sheet]"
        },
        "geometry": {
          "type": "Point",
          "coordinates": [-1.873, 34.718]
        }
      },
      {
        "type": "Feature",
        "properties": {
          "title": "Hathnora",
          "description": "[https://www.roceeh.uni-tuebingen.de/roadweb/tcpdf/localityInfoPDF/localityInfoPDF.php?locality=Hathnora Summary Data Sheet]"
        },
        "geometry": {
          "type": "Point",
          "coordinates": [77.869, 22.869]
        }
      },
      {
        "type": "Feature",
        "properties": {
          "title": "Haua Fteah",
          "description": "[https://www.roceeh.uni-tuebingen.de/roadweb/tcpdf/localityInfoPDF/localityInfoPDF.php?locality=Haua%20Fteah Summary Data Sheet]"
        },
        "geometry": {
          "type": "Point",
          "coordinates": [21.811, 32.908]
        }
      },
      {
        "type": "Feature",
        "properties": {
          "title": "Haut de Combe-Capelle",
          "description": "[https://www.roceeh.uni-tuebingen.de/roadweb/tcpdf/localityInfoPDF/localityInfoPDF.php?locality=Haut%20de%20Combe-Capelle Summary Data Sheet]"
        },
        "geometry": {
          "type": "Point",
          "coordinates": [0.85, 44.753]
        }
      },
      {
        "type": "Feature",
        "properties": {
          "title": "Hauteroche",
          "description": "[https://www.roceeh.uni-tuebingen.de/roadweb/tcpdf/localityInfoPDF/localityInfoPDF.php?locality=Hauteroche Summary Data Sheet]"
        },
        "geometry": {
          "type": "Point",
          "coordinates": [-0.074, 45.594]
        }
      },
      {
        "type": "Feature",
        "properties": {
          "title": "Hayonim Cave",
          "description": "[https://www.roceeh.uni-tuebingen.de/roadweb/tcpdf/localityInfoPDF/localityInfoPDF.php?locality=Hayonim%20Cave Summary Data Sheet]"
        },
        "geometry": {
          "type": "Point",
          "coordinates": [35.217, 32.933]
        }
      },
      {
        "type": "Feature",
        "properties": {
          "title": "Hohle Fels",
          "description": "[https://www.roceeh.uni-tuebingen.de/roadweb/tcpdf/localityInfoPDF/localityInfoPDF.php?locality=Hohle%20Fels Summary Data Sheet]"
        },
        "geometry": {
          "type": "Point",
          "coordinates": [9.754, 48.379]
        }
      },