{
  "license": "CC-BY-SA-4.0",
  "description": {
    "de": "Ausgewählte Proto-Aurignacien Fundstellen aus der ROAD Datenbank",
    "en": "Selected Proto-Aurignacian sites from the ROAD Database"
  },
  "sources": "Data retrieved from the [https://www.roceeh.uni-tuebingen.de/roadweb ROCEEH Out Of Africa Database (ROAD)] on 2025-04-08.",
  "data": {
    "type": "FeatureCollection",
    "features": [
      {
        "type": "Feature",
        "properties": {
          "title": "Arbreda Cave",
          "description": "[https://www.roceeh.uni-tuebingen.de/roadweb/tcpdf/localityInfoPDF/localityInfoPDF.php?locality=Arbreda%20Cave Summary Data Sheet]"
        },
        "geometry": {
          "type": "Point",
          "coordinates": [2.747, 42.161]
        }
      },
      {
        "type": "Feature",
        "properties": {
          "title": "Barma Grande",
          "description": "[https://www.roceeh.uni-tuebingen.de/roadweb/tcpdf/localityInfoPDF/localityInfoPDF.php?locality=Barma%20Grande Summary Data Sheet]"
        },
        "geometry": {
          "type": "Point",
          "coordinates": [7.535, 43.784]
        }
      },
      {
        "type": "Feature",
        "properties": {
          "title": "Castelcivita",
          "description": "[https://www.roceeh.uni-tuebingen.de/roadweb/tcpdf/localityInfoPDF/localityInfoPDF.php?locality=Castelcivita Summary Data Sheet]"
        },
        "geometry": {
          "type": "Point",
          "coordinates": [15.209, 40.495]
        }
      },
      {
        "type": "Feature",
        "properties": {
          "title": "Cueva de El Pendo",
          "description": "[https://www.roceeh.uni-tuebingen.de/roadweb/tcpdf/localityInfoPDF/localityInfoPDF.php?locality=Cueva%20de%20El%20Pendo Summary Data Sheet]"
        },
        "geometry": {
          "type": "Point",
          "coordinates": [-3.912, 43.389]
        }
      },
      {
        "type": "Feature",
        "properties": {
          "title": "Esquicho-Grapaou",
          "description": "[https://www.roceeh.uni-tuebingen.de/roadweb/tcpdf/localityInfoPDF/localityInfoPDF.php?locality=Esquicho-Grapaou Summary Data Sheet]"
        },
        "geometry": {
          "type": "Point",
          "coordinates": [4.333, 43.924]
        }
      },
      {
        "type": "Feature",
        "properties": {
          "title": "Fumane",
          "description": "[https://www.roceeh.uni-tuebingen.de/roadweb/tcpdf/localityInfoPDF/localityInfoPDF.php?locality=Fumane Summary Data Sheet]"
        },
        "geometry": {
          "type": "Point",
          "coordinates": [10.905, 45.592]
        }
      },
      {
        "type": "Feature",
        "properties": {
          "title": "Gatzarria",
          "description": "[https://www.roceeh.uni-tuebingen.de/roadweb/tcpdf/localityInfoPDF/localityInfoPDF.php?locality=Gatzarria Summary Data Sheet]"
        },
        "geometry": {
          "type": "Point",
          "coordinates": [-0.92, 43.135]
        }
      },
      {
        "type": "Feature",
        "properties": {
          "title": "Grotte Mandrin",
          "description": "[https://www.roceeh.uni-tuebingen.de/roadweb/tcpdf/localityInfoPDF/localityInfoPDF.php?locality=Grotte%20Mandrin Summary Data Sheet]"
        },
        "geometry": {
          "type": "Point",
          "coordinates": [4.771, 44.47]
        }
      },
      {
        "type": "Feature",
        "properties": {
          "title": "Grotte Rainaude 1",
          "description": "[https://www.roceeh.uni-tuebingen.de/roadweb/tcpdf/localityInfoPDF/localityInfoPDF.php?locality=Grotte%20Rainaude%201 Summary Data Sheet]"
        },
        "geometry": {
          "type": "Point",
          "coordinates": [6.595, 43.53]
        }
      },
      {
        "type": "Feature",
        "properties": {
          "title": "Grotte du Figuier",
          "description": "[https://www.roceeh.uni-tuebingen.de/roadweb/tcpdf/localityInfoPDF/localityInfoPDF.php?locality=Grotte%20du%20Figuier Summary Data Sheet]"
        },
        "geometry": {
          "type": "Point",
          "coordinates": [4.547, 44.32]
        }
      },
      {
        "type": "Feature",
        "properties": {
          "title": "Isturitz",
          "description": "[https://www.roceeh.uni-tuebingen.de/roadweb/tcpdf/localityInfoPDF/localityInfoPDF.php?locality=Isturitz Summary Data Sheet]"
        },
        "geometry": {
          "type": "Point",
          "coordinates": [-1.206, 43.353]
        }
      },
      {
        "type": "Feature",
        "properties": {
          "title": "La Fabbrica",
          "description": "[https://www.roceeh.uni-tuebingen.de/roadweb/tcpdf/localityInfoPDF/localityInfoPDF.php?locality=La%20Fabbrica Summary Data Sheet]"
        },
        "geometry": {
          "type": "Point",
          "coordinates": [11.122, 42.57]
        }
      },
      {
        "type": "Feature",
        "properties": {
          "title": "Labeko Koba",
          "description": "[https://www.roceeh.uni-tuebingen.de/roadweb/tcpdf/localityInfoPDF/localityInfoPDF.php?locality=Labeko%20Koba Summary Data Sheet]"
        },
        "geometry": {
          "type": "Point",
          "coordinates": [-2.49, 43.062]
        }
      },
      {
        "type": "Feature",
        "properties": {
          "title": "Les Cottés",
          "description": "[https://www.roceeh.uni-tuebingen.de/roadweb/tcpdf/localityInfoPDF/localityInfoPDF.php?locality=Les%20Cottés Summary Data Sheet]"
        },
        "geometry": {
          "type": "Point",
          "coordinates": [0.841, 46.692]
        }
      },
      {
        "type": "Feature",
        "properties": {
          "title": "Mochi",
          "description": "[https://www.roceeh.uni-tuebingen.de/roadweb/tcpdf/localityInfoPDF/localityInfoPDF.php?locality=Mochi Summary Data Sheet]"
        },
        "geometry": {
          "type": "Point",
          "coordinates": [7.534, 43.784]
        }
      },
      {
        "type": "Feature",
        "properties": {
          "title": "Paglicci",
          "description": "[https://www.roceeh.uni-tuebingen.de/roadweb/tcpdf/localityInfoPDF/localityInfoPDF.php?locality=Paglicci Summary Data Sheet]"
        },
        "geometry": {
          "type": "Point",
          "coordinates": [15.553, 41.69]
        }
      },
      {
        "type": "Feature",
        "properties": {
          "title": "Riparo Bombrini",
          "description": "[https://www.roceeh.uni-tuebingen.de/roadweb/tcpdf/localityInfoPDF/localityInfoPDF.php?locality=Riparo%20Bombrini Summary Data Sheet]"
        },
        "geometry": {
          "type": "Point",
          "coordinates": [7.535, 43.784]
        }
      },
      {
        "type": "Feature",
        "properties": {
          "title": "Riparo Tagliente",
          "description": "[https://www.roceeh.uni-tuebingen.de/roadweb/tcpdf/localityInfoPDF/localityInfoPDF.php?locality=Riparo%20Tagliente Summary Data Sheet]"
        },
        "geometry": {
          "type": "Point",
          "coordinates": [11.001, 45.541]
        }
      },
      {
        "type": "Feature",
        "properties": {
          "title": "Roccia San Sebastiano",
          "description": "[https://www.roceeh.uni-tuebingen.de/roadweb/tcpdf/localityInfoPDF/localityInfoPDF.php?locality=Roccia%20San%20Sebastiano Summary Data Sheet]"
        },
        "geometry": {
          "type": "Point",
          "coordinates": [14.13, 41.231]
        }
      },
      {
        "type": "Feature",
        "properties": {
          "title": "Saint-Césaire",
          "description": "[https://www.roceeh.uni-tuebingen.de/roadweb/tcpdf/localityInfoPDF/localityInfoPDF.php?locality=Saint-Césaire Summary Data Sheet]"
        },
        "geometry": {
          "type": "Point",
          "coordinates": [-0.504, 45.75]
        }
      },
      {
        "type": "Feature",
        "properties": {
          "title": "Serino",
          "description": "[https://www.roceeh.uni-tuebingen.de/roadweb/tcpdf/localityInfoPDF/localityInfoPDF.php?locality=Serino Summary Data Sheet]"
        },
        "geometry": {
          "type": "Point",
          "coordinates": [14.85, 40.86]
        }
      },
      {
        "type": "Feature",
        "properties": {
          "title": "Trou de la Mère Clochette",
          "description": "[https://www.roceeh.uni-tuebingen.de/roadweb/tcpdf/localityInfoPDF/localityInfoPDF.php?locality=Trou%20de%20la%20Mère%20Clochette Summary Data Sheet]"
        },
        "geometry": {
          "type": "Point",
          "coordinates": [5.571, 47.13]
        }
      }
    ],
    "crs": {
      "type": "name",
      "properties": {
        "name": "urn:ogc:def:crs:OGC:1.3:CRS84"
      }
    }
  }
}
